{
"type": "FeatureCollection",
"name": "gtfs_stops_2025",
"crs": { "type": "name", "properties": { "name": "urn:ogc:def:crs:OGC:1.3:CRS84" } },
"features": [
{ "type": "Feature", "properties": { "stop_id": 1, "stop_code": "28105z", "stop_name": "Baselga Del Bondone", "stop_desc": null, "lat": 46.078354, "lon": 11.047183, "zone_id": 10110, "wheelchair_boarding": 2.0 }, "geometry": { "type": "Point", "coordinates": [ 11.047183, 46.078354 ] } },
{ "type": "Feature", "properties": { "stop_id": 2, "stop_code": "28105x", "stop_name": "Baselga Del Bondone", "stop_desc": null, "lat": 46.078528, "lon": 11.047586, "zone_id": 10110, "wheelchair_boarding": 1.0 }, "geometry": { "type": "Point", "coordinates": [ 11.047586, 46.078528 ] } },
{ "type": "Feature", "properties": { "stop_id": 3, "stop_code": "27105c", "stop_name": "Belvedere", "stop_desc": null, "lat": 46.044409, "lon": 11.105369, "zone_id": 10110, "wheelchair_boarding": null }, "geometry": { "type": "Point", "coordinates": [ 11.105369, 46.044409 ] } },
{ "type": "Feature", "properties": { "stop_id": 4, "stop_code": "22220z", "stop_name": "Lamar Ponte Avisio", "stop_desc": null, "lat": 46.134568, "lon": 11.111001, "zone_id": 10110, "wheelchair_boarding": 1.0 }, "geometry": { "type": "Point", "coordinates": [ 11.111001, 46.134568 ] } },
{ "type": "Feature", "properties": { "stop_id": 5, "stop_code": "28060z", "stop_name": "Sp 85 Bivio Sopramonte", "stop_desc": null, "lat": 46.085069, "lon": 11.069564, "zone_id": 10110, "wheelchair_boarding": 2.0 }, "geometry": { "type": "Point", "coordinates": [ 11.069564, 46.085069 ] } },
{ "type": "Feature", "properties": { "stop_id": 7, "stop_code": "24405z", "stop_name": "Maso Bolleri", "stop_desc": null, "lat": 46.102457, "lon": 11.124144, "zone_id": 10110, "wheelchair_boarding": 2.0 }, "geometry": { "type": "Point", "coordinates": [ 11.124144, 46.102457 ] } },
{ "type": "Feature", "properties": { "stop_id": 8, "stop_code": "24405x", "stop_name": "Maso Bolleri", "stop_desc": null, "lat": 46.102269, "lon": 11.123991, "zone_id": 10110, "wheelchair_boarding": 2.0 }, "geometry": { "type": "Point", "coordinates": [ 11.123991, 46.102269 ] } },
{ "type": "Feature", "properties": { "stop_id": 9, "stop_code": "25205x", "stop_name": "Borino", "stop_desc": null, "lat": 46.067127, "lon": 11.165537, "zone_id": 10110, "wheelchair_boarding": 1.0 }, "geometry": { "type": "Point", "coordinates": [ 11.165537, 46.067127 ] } },
{ "type": "Feature", "properties": { "stop_id": 10, "stop_code": "28205z", "stop_name": "Cadine Strada Gardesana", "stop_desc": null, "lat": 46.088578, "lon": 11.065061, "zone_id": 10110, "wheelchair_boarding": 1.0 }, "geometry": { "type": "Point", "coordinates": [ 11.065061, 46.088578 ] } },
{ "type": "Feature", "properties": { "stop_id": 11, "stop_code": "28205x", "stop_name": "Cadine Strada Gardesana", "stop_desc": null, "lat": 46.088767, "lon": 11.064526, "zone_id": 10110, "wheelchair_boarding": 1.0 }, "geometry": { "type": "Point", "coordinates": [ 11.064526, 46.088767 ] } },
{ "type": "Feature", "properties": { "stop_id": 12, "stop_code": "22110c", "stop_name": "Canova Paludi", "stop_desc": null, "lat": 46.099273, "lon": 11.109269, "zone_id": 10110, "wheelchair_boarding": 1.0 }, "geometry": { "type": "Point", "coordinates": [ 11.109269, 46.099273 ] } },
{ "type": "Feature", "properties": { "stop_id": 13, "stop_code": "22015x", "stop_name": "Gardolo \"Materna Paludi\"", "stop_desc": null, "lat": 46.103917, "lon": 11.108166, "zone_id": 10110, "wheelchair_boarding": 2.0 }, "geometry": { "type": "Point", "coordinates": [ 11.108166, 46.103917 ] } },
{ "type": "Feature", "properties": { "stop_id": 15, "stop_code": "21105z", "stop_name": "Asiago S.Bartolameo", "stop_desc": null, "lat": 46.047706, "lon": 11.137591, "zone_id": 10110, "wheelchair_boarding": 1.0 }, "geometry": { "type": "Point", "coordinates": [ 11.137591, 46.047706 ] } },
{ "type": "Feature", "properties": { "stop_id": 17, "stop_code": "24015x", "stop_name": "Cognola \"Toresela\"", "stop_desc": null, "lat": 46.07889, "lon": 11.153522, "zone_id": 10110, "wheelchair_boarding": 2.0 }, "geometry": { "type": "Point", "coordinates": [ 11.153522, 46.07889 ] } },
{ "type": "Feature", "properties": { "stop_id": 18, "stop_code": "24015z", "stop_name": "Cognola \"Toresela\"", "stop_desc": null, "lat": 46.078916, "lon": 11.154062, "zone_id": 10110, "wheelchair_boarding": 2.0 }, "geometry": { "type": "Point", "coordinates": [ 11.154062, 46.078916 ] } },
{ "type": "Feature", "properties": { "stop_id": 19, "stop_code": "24025x", "stop_name": "Cognola Bivio Civezzano", "stop_desc": null, "lat": 46.080507, "lon": 11.158307, "zone_id": 10110, "wheelchair_boarding": 2.0 }, "geometry": { "type": "Point", "coordinates": [ 11.158307, 46.080507 ] } },
{ "type": "Feature", "properties": { "stop_id": 20, "stop_code": "24025z", "stop_name": "Cognola Bivio Civezzano", "stop_desc": null, "lat": 46.080506, "lon": 11.158409, "zone_id": 10110, "wheelchair_boarding": 2.0 }, "geometry": { "type": "Point", "coordinates": [ 11.158409, 46.080506 ] } },
{ "type": "Feature", "properties": { "stop_id": 21, "stop_code": "24005c", "stop_name": "Cognola \"Centro Civico\"", "stop_desc": null, "lat": 46.07644, "lon": 11.141608, "zone_id": 10110, "wheelchair_boarding": 1.0 }, "geometry": { "type": "Point", "coordinates": [ 11.141608, 46.07644 ] } },
{ "type": "Feature", "properties": { "stop_id": 22, "stop_code": "24030z", "stop_name": "Cognola Grezoni", "stop_desc": null, "lat": 46.075937, "lon": 11.146884, "zone_id": 10110, "wheelchair_boarding": 2.0 }, "geometry": { "type": "Point", "coordinates": [ 11.146884, 46.075937 ] } },
{ "type": "Feature", "properties": { "stop_id": 23, "stop_code": "24030x", "stop_name": "Cognola Grezoni", "stop_desc": null, "lat": 46.075967, "lon": 11.14658, "zone_id": 10110, "wheelchair_boarding": 2.0 }, "geometry": { "type": "Point", "coordinates": [ 11.14658, 46.075967 ] } },
{ "type": "Feature", "properties": { "stop_id": 24, "stop_code": "24105z", "stop_name": "San Vito", "stop_desc": null, "lat": 46.075378, "lon": 11.139504, "zone_id": 10110, "wheelchair_boarding": 1.0 }, "geometry": { "type": "Point", "coordinates": [ 11.139504, 46.075378 ] } },
{ "type": "Feature", "properties": { "stop_id": 25, "stop_code": "24035x", "stop_name": "Cognola S.Vito", "stop_desc": null, "lat": 46.075681, "lon": 11.14077, "zone_id": 10110, "wheelchair_boarding": 2.0 }, "geometry": { "type": "Point", "coordinates": [ 11.14077, 46.075681 ] } },
{ "type": "Feature", "properties": { "stop_id": 26, "stop_code": "24035z", "stop_name": "Cognola S.Vito", "stop_desc": null, "lat": 46.075653, "lon": 11.141776, "zone_id": 10110, "wheelchair_boarding": 2.0 }, "geometry": { "type": "Point", "coordinates": [ 11.141776, 46.075653 ] } },
{ "type": "Feature", "properties": { "stop_id": 27, "stop_code": "24105x", "stop_name": "San Vito", "stop_desc": null, "lat": 46.075399, "lon": 11.13889, "zone_id": 10110, "wheelchair_boarding": 1.0 }, "geometry": { "type": "Point", "coordinates": [ 11.13889, 46.075399 ] } },
{ "type": "Feature", "properties": { "stop_id": 28, "stop_code": "24010z", "stop_name": "Cognola \"Scuole\"", "stop_desc": null, "lat": 46.075713, "lon": 11.144004, "zone_id": 10110, "wheelchair_boarding": 2.0 }, "geometry": { "type": "Point", "coordinates": [ 11.144004, 46.075713 ] } },
{ "type": "Feature", "properties": { "stop_id": 29, "stop_code": "24010x", "stop_name": "Cognola \"Scuole\"", "stop_desc": null, "lat": 46.075819, "lon": 11.144105, "zone_id": 10110, "wheelchair_boarding": 2.0 }, "geometry": { "type": "Point", "coordinates": [ 11.144105, 46.075819 ] } },
{ "type": "Feature", "properties": { "stop_id": 30, "stop_code": "24020z", "stop_name": "Cognola Alla Veduta \"Roza\"", "stop_desc": null, "lat": 46.077643, "lon": 11.151166, "zone_id": 10110, "wheelchair_boarding": 1.0 }, "geometry": { "type": "Point", "coordinates": [ 11.151166, 46.077643 ] } },
{ "type": "Feature", "properties": { "stop_id": 31, "stop_code": "24020x", "stop_name": "Cognola Alla Veduta \"Roza\"", "stop_desc": null, "lat": 46.078022, "lon": 11.151578, "zone_id": 10110, "wheelchair_boarding": 2.0 }, "geometry": { "type": "Point", "coordinates": [ 11.151578, 46.078022 ] } },
{ "type": "Feature", "properties": { "stop_id": 32, "stop_code": "21180z", "stop_name": "Brescia \"Villa Salvotti\"", "stop_desc": null, "lat": 46.076115, "lon": 11.101057, "zone_id": 10110, "wheelchair_boarding": 2.0 }, "geometry": { "type": "Point", "coordinates": [ 11.101057, 46.076115 ] } },
{ "type": "Feature", "properties": { "stop_id": 37, "stop_code": "21270z", "stop_name": "Degli Alpini Oberziner", "stop_desc": null, "lat": 46.079109, "lon": 11.118075, "zone_id": 10110, "wheelchair_boarding": 2.0 }, "geometry": { "type": "Point", "coordinates": [ 11.118075, 46.079109 ] } },
{ "type": "Feature", "properties": { "stop_id": 38, "stop_code": "23105c", "stop_name": "Cortesano", "stop_desc": null, "lat": 46.124661, "lon": 11.133726, "zone_id": 10110, "wheelchair_boarding": null }, "geometry": { "type": "Point", "coordinates": [ 11.133726, 46.124661 ] } },
{ "type": "Feature", "properties": { "stop_id": 39, "stop_code": "23420z", "stop_name": "Vigo Meano Alle Gorghe", "stop_desc": null, "lat": 46.129695, "lon": 11.134602, "zone_id": 10110, "wheelchair_boarding": 1.0 }, "geometry": { "type": "Point", "coordinates": [ 11.134602, 46.129695 ] } },
{ "type": "Feature", "properties": { "stop_id": 40, "stop_code": "23420x", "stop_name": "Vigo Meano Alle Gorghe", "stop_desc": null, "lat": 46.129572, "lon": 11.134665, "zone_id": 10110, "wheelchair_boarding": 2.0 }, "geometry": { "type": "Point", "coordinates": [ 11.134665, 46.129572 ] } },
{ "type": "Feature", "properties": { "stop_id": 43, "stop_code": "28050x", "stop_name": "Forte Bus De Vela", "stop_desc": null, "lat": 46.085345, "lon": 11.069798, "zone_id": 10110, "wheelchair_boarding": null }, "geometry": { "type": "Point", "coordinates": [ 11.069798, 46.085345 ] } },
{ "type": "Feature", "properties": { "stop_id": 46, "stop_code": "25305z", "stop_name": "Gabbiolo \"Campo Sportivo\"", "stop_desc": null, "lat": 46.055301, "lon": 11.14899, "zone_id": 10110, "wheelchair_boarding": 1.0 }, "geometry": { "type": "Point", "coordinates": [ 11.14899, 46.055301 ] } },
{ "type": "Feature", "properties": { "stop_id": 47, "stop_code": "25305x", "stop_name": "Gabbiolo \"Campo Sportivo\"", "stop_desc": null, "lat": 46.055279, "lon": 11.148843, "zone_id": 10110, "wheelchair_boarding": 1.0 }, "geometry": { "type": "Point", "coordinates": [ 11.148843, 46.055279 ] } },
{ "type": "Feature", "properties": { "stop_id": 48, "stop_code": "22080z", "stop_name": "Sp 76 Carpenedi", "stop_desc": null, "lat": 46.117667, "lon": 11.110047, "zone_id": 10110, "wheelchair_boarding": 2.0 }, "geometry": { "type": "Point", "coordinates": [ 11.110047, 46.117667 ] } },
{ "type": "Feature", "properties": { "stop_id": 49, "stop_code": "22080x", "stop_name": "Sp 76 Carpenedi", "stop_desc": null, "lat": 46.117278, "lon": 11.108621, "zone_id": 10110, "wheelchair_boarding": 2.0 }, "geometry": { "type": "Point", "coordinates": [ 11.108621, 46.117278 ] } },
{ "type": "Feature", "properties": { "stop_id": 50, "stop_code": "22065z", "stop_name": "Gardolo S.Anna", "stop_desc": null, "lat": 46.111157, "lon": 11.109534, "zone_id": 10110, "wheelchair_boarding": 1.0 }, "geometry": { "type": "Point", "coordinates": [ 11.109534, 46.111157 ] } },
{ "type": "Feature", "properties": { "stop_id": 51, "stop_code": "22065x", "stop_name": "Gardolo S.Anna", "stop_desc": null, "lat": 46.111087, "lon": 11.109494, "zone_id": 10110, "wheelchair_boarding": 1.0 }, "geometry": { "type": "Point", "coordinates": [ 11.109494, 46.111087 ] } },
{ "type": "Feature", "properties": { "stop_id": 52, "stop_code": "22055s", "stop_name": "Gardolo P.Le Neufahrn Sud", "stop_desc": null, "lat": 46.106607, "lon": 11.111622, "zone_id": 10110, "wheelchair_boarding": 1.0 }, "geometry": { "type": "Point", "coordinates": [ 11.111622, 46.106607 ] } },
{ "type": "Feature", "properties": { "stop_id": 53, "stop_code": "22055n", "stop_name": "Gardolo P.Le Neufahrn Nord", "stop_desc": null, "lat": 46.106673, "lon": 11.11158, "zone_id": 10110, "wheelchair_boarding": 1.0 }, "geometry": { "type": "Point", "coordinates": [ 11.11158, 46.106673 ] } },
{ "type": "Feature", "properties": { "stop_id": 54, "stop_code": "22060z", "stop_name": "Gardolo Piazza", "stop_desc": null, "lat": 46.108364, "lon": 11.111681, "zone_id": 10110, "wheelchair_boarding": 1.0 }, "geometry": { "type": "Point", "coordinates": [ 11.111681, 46.108364 ] } },
{ "type": "Feature", "properties": { "stop_id": 55, "stop_code": "22060x", "stop_name": "Gardolo Piazza", "stop_desc": null, "lat": 46.108465, "lon": 11.111514, "zone_id": 10110, "wheelchair_boarding": 2.0 }, "geometry": { "type": "Point", "coordinates": [ 11.111514, 46.108465 ] } },
{ "type": "Feature", "properties": { "stop_id": 56, "stop_code": "22105-", "stop_name": "Canova Aichner", "stop_desc": null, "lat": 46.101923, "lon": 11.103255, "zone_id": 10110, "wheelchair_boarding": 2.0 }, "geometry": { "type": "Point", "coordinates": [ 11.103255, 46.101923 ] } },
{ "type": "Feature", "properties": { "stop_id": 57, "stop_code": "22115-", "stop_name": "Canova Via Della Canova", "stop_desc": null, "lat": 46.100323, "lon": 11.106659, "zone_id": 10110, "wheelchair_boarding": 1.0 }, "geometry": { "type": "Point", "coordinates": [ 11.106659, 46.100323 ] } },
{ "type": "Feature", "properties": { "stop_id": 58, "stop_code": "22040z", "stop_name": "Gardolo Don Milani 8 Marzo", "stop_desc": null, "lat": 46.103947, "lon": 11.117561, "zone_id": 10110, "wheelchair_boarding": 2.0 }, "geometry": { "type": "Point", "coordinates": [ 11.117561, 46.103947 ] } },
{ "type": "Feature", "properties": { "stop_id": 59, "stop_code": "22045x", "stop_name": "Gardolo D.Milani \"Piscina\"", "stop_desc": null, "lat": 46.10671, "lon": 11.114353, "zone_id": 10110, "wheelchair_boarding": 2.0 }, "geometry": { "type": "Point", "coordinates": [ 11.114353, 46.10671 ] } },
{ "type": "Feature", "properties": { "stop_id": 60, "stop_code": "22045z", "stop_name": "Gardolo D.Milani \"Piscina\"", "stop_desc": null, "lat": 46.106764, "lon": 11.114361, "zone_id": 10110, "wheelchair_boarding": 2.0 }, "geometry": { "type": "Point", "coordinates": [ 11.114361, 46.106764 ] } },
{ "type": "Feature", "properties": { "stop_id": 61, "stop_code": "22040x", "stop_name": "Gardolo Don Milani 8 Marzo", "stop_desc": null, "lat": 46.104154, "lon": 11.117338, "zone_id": 10110, "wheelchair_boarding": 2.0 }, "geometry": { "type": "Point", "coordinates": [ 11.117338, 46.104154 ] } },
{ "type": "Feature", "properties": { "stop_id": 62, "stop_code": "22070z", "stop_name": "Gardolo S.Anna Carpenedi", "stop_desc": null, "lat": 46.113334, "lon": 11.107735, "zone_id": 10110, "wheelchair_boarding": 1.0 }, "geometry": { "type": "Point", "coordinates": [ 11.107735, 46.113334 ] } },
{ "type": "Feature", "properties": { "stop_id": 63, "stop_code": "22070x", "stop_name": "Gardolo S.Anna Carpenedi", "stop_desc": null, "lat": 46.113375, "lon": 11.107612, "zone_id": 10110, "wheelchair_boarding": 1.0 }, "geometry": { "type": "Point", "coordinates": [ 11.107612, 46.113375 ] } },
{ "type": "Feature", "properties": { "stop_id": 64, "stop_code": "22075x", "stop_name": "Gardolo Svincolo Ss.12", "stop_desc": null, "lat": 46.106196, "lon": 11.109014, "zone_id": 10110, "wheelchair_boarding": 1.0 }, "geometry": { "type": "Point", "coordinates": [ 11.109014, 46.106196 ] } },
{ "type": "Feature", "properties": { "stop_id": 65, "stop_code": "23215z", "stop_name": "Gazzadina Strada Vecchia", "stop_desc": null, "lat": 46.13011, "lon": 11.126402, "zone_id": 10110, "wheelchair_boarding": 2.0 }, "geometry": { "type": "Point", "coordinates": [ 11.126402, 46.13011 ] } },
{ "type": "Feature", "properties": { "stop_id": 66, "stop_code": "23210z", "stop_name": "Gazzadina Al Pontat", "stop_desc": null, "lat": 46.128896, "lon": 11.128728, "zone_id": 10110, "wheelchair_boarding": 2.0 }, "geometry": { "type": "Point", "coordinates": [ 11.128728, 46.128896 ] } },
{ "type": "Feature", "properties": { "stop_id": 67, "stop_code": "23210x", "stop_name": "Gazzadina Al Pontat", "stop_desc": null, "lat": 46.128751, "lon": 11.129085, "zone_id": 10110, "wheelchair_boarding": 2.0 }, "geometry": { "type": "Point", "coordinates": [ 11.129085, 46.128751 ] } },
{ "type": "Feature", "properties": { "stop_id": 68, "stop_code": "23215x", "stop_name": "Gazzadina Strada Vecchia", "stop_desc": null, "lat": 46.130171, "lon": 11.126098, "zone_id": 10110, "wheelchair_boarding": 2.0 }, "geometry": { "type": "Point", "coordinates": [ 11.126098, 46.130171 ] } },
{ "type": "Feature", "properties": { "stop_id": 69, "stop_code": "25710c", "stop_name": "Grotta Piazza", "stop_desc": null, "lat": 46.045775, "lon": 11.151173, "zone_id": 10110, "wheelchair_boarding": 2.0 }, "geometry": { "type": "Point", "coordinates": [ 11.151173, 46.045775 ] } },
{ "type": "Feature", "properties": { "stop_id": 70, "stop_code": "25705z", "stop_name": "Grotta Bindesi", "stop_desc": null, "lat": 46.043306, "lon": 11.151756, "zone_id": 10110, "wheelchair_boarding": 2.0 }, "geometry": { "type": "Point", "coordinates": [ 11.151756, 46.043306 ] } },
{ "type": "Feature", "properties": { "stop_id": 71, "stop_code": "25705x", "stop_name": "Grotta Bindesi", "stop_desc": null, "lat": 46.043679, "lon": 11.151494, "zone_id": 10110, "wheelchair_boarding": 2.0 }, "geometry": { "type": "Point", "coordinates": [ 11.151494, 46.043679 ] } },
{ "type": "Feature", "properties": { "stop_id": 72, "stop_code": "22230z", "stop_name": "Ss 12 \"Zona Ind.Le Ftm\"", "stop_desc": null, "lat": 46.119198, "lon": 11.106145, "zone_id": 10110, "wheelchair_boarding": 1.0 }, "geometry": { "type": "Point", "coordinates": [ 11.106145, 46.119198 ] } },
{ "type": "Feature", "properties": { "stop_id": 73, "stop_code": "22205z", "stop_name": "Lamar \"Ftm\"", "stop_desc": null, "lat": 46.125847, "lon": 11.107861, "zone_id": 10110, "wheelchair_boarding": 1.0 }, "geometry": { "type": "Point", "coordinates": [ 11.107861, 46.125847 ] } },
{ "type": "Feature", "properties": { "stop_id": 74, "stop_code": "22205x", "stop_name": "Lamar \"Ftm\"", "stop_desc": null, "lat": 46.125967, "lon": 11.107596, "zone_id": 10110, "wheelchair_boarding": 1.0 }, "geometry": { "type": "Point", "coordinates": [ 11.107596, 46.125967 ] } },
{ "type": "Feature", "properties": { "stop_id": 75, "stop_code": "22210z", "stop_name": "Lamar \"Sottostazione Enel\"", "stop_desc": null, "lat": 46.129144, "lon": 11.109752, "zone_id": 10110, "wheelchair_boarding": 1.0 }, "geometry": { "type": "Point", "coordinates": [ 11.109752, 46.129144 ] } },
{ "type": "Feature", "properties": { "stop_id": 76, "stop_code": "21420z", "stop_name": "Largo Sauro", "stop_desc": null, "lat": 46.074753, "lon": 11.125004, "zone_id": 10110, "wheelchair_boarding": null }, "geometry": { "type": "Point", "coordinates": [ 11.125004, 46.074753 ] } },
{ "type": "Feature", "properties": { "stop_id": 77, "stop_code": "29005z", "stop_name": "Lavis Nazionale", "stop_desc": null, "lat": 46.13858, "lon": 11.109069, "zone_id": 19025, "wheelchair_boarding": 2.0 }, "geometry": { "type": "Point", "coordinates": [ 11.109069, 46.13858 ] } },
{ "type": "Feature", "properties": { "stop_id": 78, "stop_code": "29015x", "stop_name": "Lavis Piazza Caduti", "stop_desc": null, "lat": 46.138061, "lon": 11.115898, "zone_id": 19025, "wheelchair_boarding": 2.0 }, "geometry": { "type": "Point", "coordinates": [ 11.115898, 46.138061 ] } },
{ "type": "Feature", "properties": { "stop_id": 79, "stop_code": "29020x", "stop_name": "Lavis \"Municipio\"", "stop_desc": null, "lat": 46.139289, "lon": 11.112161, "zone_id": 19025, "wheelchair_boarding": 2.0 }, "geometry": { "type": "Point", "coordinates": [ 11.112161, 46.139289 ] } },
{ "type": "Feature", "properties": { "stop_id": 80, "stop_code": "19025", "stop_name": "Lavis Rosmini Segantini", "stop_desc": null, "lat": 46.142225, "lon": 11.108496, "zone_id": 19025, "wheelchair_boarding": 1.0 }, "geometry": { "type": "Point", "coordinates": [ 11.108496, 46.142225 ] } },
{ "type": "Feature", "properties": { "stop_id": 85, "stop_code": "21210z", "stop_name": "Centochiavi Dalla Fior", "stop_desc": null, "lat": 46.094565, "lon": 11.120643, "zone_id": 10110, "wheelchair_boarding": 1.0 }, "geometry": { "type": "Point", "coordinates": [ 11.120643, 46.094565 ] } },
{ "type": "Feature", "properties": { "stop_id": 86, "stop_code": "21205x", "stop_name": "Centochiavi Chiocchetti", "stop_desc": null, "lat": 46.093919, "lon": 11.120723, "zone_id": 10110, "wheelchair_boarding": 2.0 }, "geometry": { "type": "Point", "coordinates": [ 11.120723, 46.093919 ] } },
{ "type": "Feature", "properties": { "stop_id": 87, "stop_code": "22410x", "stop_name": "Melta \"Case Itea\"", "stop_desc": null, "lat": 46.102356, "lon": 11.118127, "zone_id": 10110, "wheelchair_boarding": 1.0 }, "geometry": { "type": "Point", "coordinates": [ 11.118127, 46.102356 ] } },
{ "type": "Feature", "properties": { "stop_id": 88, "stop_code": "22405x", "stop_name": "Parco di Melta", "stop_desc": null, "lat": 46.097301, "lon": 11.119758, "zone_id": 10110, "wheelchair_boarding": null }, "geometry": { "type": "Point", "coordinates": [ 11.119758, 46.097301 ] } },
{ "type": "Feature", "properties": { "stop_id": 89, "stop_code": "22415z", "stop_name": "Melta Centro", "stop_desc": null, "lat": 46.099084, "lon": 11.119185, "zone_id": 10110, "wheelchair_boarding": 2.0 }, "geometry": { "type": "Point", "coordinates": [ 11.119185, 46.099084 ] } },
{ "type": "Feature", "properties": { "stop_id": 90, "stop_code": "22415x", "stop_name": "Melta Centro", "stop_desc": null, "lat": 46.100097, "lon": 11.118761, "zone_id": 10110, "wheelchair_boarding": 1.0 }, "geometry": { "type": "Point", "coordinates": [ 11.118761, 46.100097 ] } },
{ "type": "Feature", "properties": { "stop_id": 91, "stop_code": "22405z", "stop_name": "Parco di Melta", "stop_desc": null, "lat": 46.097222, "lon": 11.119861, "zone_id": 10110, "wheelchair_boarding": null }, "geometry": { "type": "Point", "coordinates": [ 11.119861, 46.097222 ] } },
{ "type": "Feature", "properties": { "stop_id": 92, "stop_code": "21115c", "stop_name": "Bettini \"Madonna Bianca\"", "stop_desc": null, "lat": 46.04238, "lon": 11.132874, "zone_id": 10110, "wheelchair_boarding": 2.0 }, "geometry": { "type": "Point", "coordinates": [ 11.132874, 46.04238 ] } },
{ "type": "Feature", "properties": { "stop_id": 93, "stop_code": "21690z", "stop_name": "Stella \"S.Gaetano\"", "stop_desc": null, "lat": 46.036419, "lon": 11.13043, "zone_id": 10110, "wheelchair_boarding": 2.0 }, "geometry": { "type": "Point", "coordinates": [ 11.13043, 46.036419 ] } },
{ "type": "Feature", "properties": { "stop_id": 94, "stop_code": "26040z", "stop_name": "Ss 12 \"Casteller\"", "stop_desc": null, "lat": 46.025382, "lon": 11.132726, "zone_id": 10110, "wheelchair_boarding": 2.0 }, "geometry": { "type": "Point", "coordinates": [ 11.132726, 46.025382 ] } },
{ "type": "Feature", "properties": { "stop_id": 95, "stop_code": "26040x", "stop_name": "Ss 12 \"Casteller\"", "stop_desc": null, "lat": 46.025655, "lon": 11.132788, "zone_id": 10110, "wheelchair_boarding": 2.0 }, "geometry": { "type": "Point", "coordinates": [ 11.132788, 46.025655 ] } },
{ "type": "Feature", "properties": { "stop_id": 96, "stop_code": "21465x", "stop_name": "Madonna Bianca \"S.Gaetano\"", "stop_desc": null, "lat": 46.037978, "lon": 11.13066, "zone_id": 10110, "wheelchair_boarding": 1.0 }, "geometry": { "type": "Point", "coordinates": [ 11.13066, 46.037978 ] } },
{ "type": "Feature", "properties": { "stop_id": 97, "stop_code": "21695x", "stop_name": "Stella Marighetto", "stop_desc": null, "lat": 46.03424, "lon": 11.131449, "zone_id": 10110, "wheelchair_boarding": 1.0 }, "geometry": { "type": "Point", "coordinates": [ 11.131449, 46.03424 ] } },
{ "type": "Feature", "properties": { "stop_id": 98, "stop_code": "21460z", "stop_name": "Madonna Bianca \"Man\"", "stop_desc": null, "lat": 46.040233, "lon": 11.13044, "zone_id": 10110, "wheelchair_boarding": 2.0 }, "geometry": { "type": "Point", "coordinates": [ 11.13044, 46.040233 ] } },
{ "type": "Feature", "properties": { "stop_id": 99, "stop_code": "26045z", "stop_name": "Ss 12 \"Le Caverne\"", "stop_desc": null, "lat": 46.031037, "lon": 11.132709, "zone_id": 10110, "wheelchair_boarding": 2.0 }, "geometry": { "type": "Point", "coordinates": [ 11.132709, 46.031037 ] } },
{ "type": "Feature", "properties": { "stop_id": 100, "stop_code": "26045x", "stop_name": "Ss 12 \"Le Caverne\"", "stop_desc": null, "lat": 46.030059, "lon": 11.132908, "zone_id": 10110, "wheelchair_boarding": 1.0 }, "geometry": { "type": "Point", "coordinates": [ 11.132908, 46.030059 ] } },
{ "type": "Feature", "properties": { "stop_id": 101, "stop_code": "24335z", "stop_name": "Martignano Formigheta", "stop_desc": null, "lat": 46.089145, "lon": 11.133132, "zone_id": 10110, "wheelchair_boarding": 1.0 }, "geometry": { "type": "Point", "coordinates": [ 11.133132, 46.089145 ] } },
{ "type": "Feature", "properties": { "stop_id": 102, "stop_code": "24335x", "stop_name": "Martignano Formigheta", "stop_desc": null, "lat": 46.088977, "lon": 11.133177, "zone_id": 10110, "wheelchair_boarding": 1.0 }, "geometry": { "type": "Point", "coordinates": [ 11.133177, 46.088977 ] } },
{ "type": "Feature", "properties": { "stop_id": 103, "stop_code": "24305z", "stop_name": "Martignano \"Chiesa\"", "stop_desc": null, "lat": 46.088719, "lon": 11.130593, "zone_id": 10110, "wheelchair_boarding": 2.0 }, "geometry": { "type": "Point", "coordinates": [ 11.130593, 46.088719 ] } },
{ "type": "Feature", "properties": { "stop_id": 104, "stop_code": "24040z", "stop_name": "Sp 131 \"Maso Pradiscola\"", "stop_desc": null, "lat": 46.083248, "lon": 11.135662, "zone_id": 10110, "wheelchair_boarding": 2.0 }, "geometry": { "type": "Point", "coordinates": [ 11.135662, 46.083248 ] } },
{ "type": "Feature", "properties": { "stop_id": 105, "stop_code": "24040x", "stop_name": "Sp 131 \"Maso Pradiscola\"", "stop_desc": null, "lat": 46.083257, "lon": 11.135788, "zone_id": 10110, "wheelchair_boarding": 1.0 }, "geometry": { "type": "Point", "coordinates": [ 11.135788, 46.083257 ] } },
{ "type": "Feature", "properties": { "stop_id": 106, "stop_code": "24345z", "stop_name": "Martignano P.Zza Menghin", "stop_desc": null, "lat": 46.090133, "lon": 11.131586, "zone_id": 10110, "wheelchair_boarding": 2.0 }, "geometry": { "type": "Point", "coordinates": [ 11.131586, 46.090133 ] } },
{ "type": "Feature", "properties": { "stop_id": 107, "stop_code": "24345x", "stop_name": "Martignano P.Zza Menghin", "stop_desc": null, "lat": 46.090206, "lon": 11.131471, "zone_id": 10110, "wheelchair_boarding": 2.0 }, "geometry": { "type": "Point", "coordinates": [ 11.131471, 46.090206 ] } },
{ "type": "Feature", "properties": { "stop_id": 108, "stop_code": "24340x", "stop_name": "Martignano Piazza Canopi", "stop_desc": null, "lat": 46.089258, "lon": 11.130976, "zone_id": 10110, "wheelchair_boarding": 1.0 }, "geometry": { "type": "Point", "coordinates": [ 11.130976, 46.089258 ] } },
{ "type": "Feature", "properties": { "stop_id": 109, "stop_code": "24350z", "stop_name": "Sp 131 \"Res. Silvana\"", "stop_desc": null, "lat": 46.09764, "lon": 11.126986, "zone_id": 10110, "wheelchair_boarding": 2.0 }, "geometry": { "type": "Point", "coordinates": [ 11.126986, 46.09764 ] } },
{ "type": "Feature", "properties": { "stop_id": 110, "stop_code": "24350x", "stop_name": "Sp 131 \"Res. Silvana\"", "stop_desc": null, "lat": 46.097687, "lon": 11.12683, "zone_id": 10110, "wheelchair_boarding": 2.0 }, "geometry": { "type": "Point", "coordinates": [ 11.12683, 46.097687 ] } },
{ "type": "Feature", "properties": { "stop_id": 111, "stop_code": "24310z", "stop_name": "Martignano Ai Bolleri", "stop_desc": null, "lat": 46.094528, "lon": 11.130103, "zone_id": 10110, "wheelchair_boarding": 2.0 }, "geometry": { "type": "Point", "coordinates": [ 11.130103, 46.094528 ] } },
{ "type": "Feature", "properties": { "stop_id": 112, "stop_code": "24310x", "stop_name": "Martignano Ai Bolleri", "stop_desc": null, "lat": 46.094843, "lon": 11.129425, "zone_id": 10110, "wheelchair_boarding": 2.0 }, "geometry": { "type": "Point", "coordinates": [ 11.129425, 46.094843 ] } },
{ "type": "Feature", "properties": { "stop_id": 113, "stop_code": "28015z", "stop_name": "Sopramonte \"Maso Banal\"", "stop_desc": null, "lat": 46.069001, "lon": 11.063551, "zone_id": 10110, "wheelchair_boarding": 2.0 }, "geometry": { "type": "Point", "coordinates": [ 11.063551, 46.069001 ] } },
{ "type": "Feature", "properties": { "stop_id": 115, "stop_code": "24355z", "stop_name": "Sp 131 Al Maso Specchio", "stop_desc": null, "lat": 46.10449, "lon": 11.123519, "zone_id": 10110, "wheelchair_boarding": 2.0 }, "geometry": { "type": "Point", "coordinates": [ 11.123519, 46.10449 ] } },
{ "type": "Feature", "properties": { "stop_id": 116, "stop_code": "24355x", "stop_name": "Sp 131 Al Maso Specchio", "stop_desc": null, "lat": 46.104411, "lon": 11.123396, "zone_id": 10110, "wheelchair_boarding": 2.0 }, "geometry": { "type": "Point", "coordinates": [ 11.123396, 46.104411 ] } },
{ "type": "Feature", "properties": { "stop_id": 117, "stop_code": "27015z", "stop_name": "Ravina \"Maso Stella\"", "stop_desc": null, "lat": 46.032327, "lon": 11.112713, "zone_id": 10110, "wheelchair_boarding": 2.0 }, "geometry": { "type": "Point", "coordinates": [ 11.112713, 46.032327 ] } },
{ "type": "Feature", "properties": { "stop_id": 118, "stop_code": "27015x", "stop_name": "Ravina \"Maso Stella\"", "stop_desc": null, "lat": 46.032559, "lon": 11.112917, "zone_id": 10110, "wheelchair_boarding": 2.0 }, "geometry": { "type": "Point", "coordinates": [ 11.112917, 46.032559 ] } },
{ "type": "Feature", "properties": { "stop_id": 119, "stop_code": "26030c", "stop_name": "Mattarello Piazza Perini", "stop_desc": null, "lat": 46.00691, "lon": 11.128386, "zone_id": 10110, "wheelchair_boarding": 2.0 }, "geometry": { "type": "Point", "coordinates": [ 11.128386, 46.00691 ] } },
{ "type": "Feature", "properties": { "stop_id": 120, "stop_code": "26035z", "stop_name": "Mattarello Via Nazionale", "stop_desc": null, "lat": 46.012398, "lon": 11.1306, "zone_id": 10110, "wheelchair_boarding": 1.0 }, "geometry": { "type": "Point", "coordinates": [ 11.1306, 46.012398 ] } },
{ "type": "Feature", "properties": { "stop_id": 121, "stop_code": "26035x", "stop_name": "Mattarello Via Nazionale", "stop_desc": null, "lat": 46.011656, "lon": 11.130383, "zone_id": 10110, "wheelchair_boarding": 2.0 }, "geometry": { "type": "Point", "coordinates": [ 11.130383, 46.011656 ] } },
{ "type": "Feature", "properties": { "stop_id": 122, "stop_code": "26005x", "stop_name": "Mattarello Pomeranos", "stop_desc": null, "lat": 46.013587, "lon": 11.131547, "zone_id": 10110, "wheelchair_boarding": 1.0 }, "geometry": { "type": "Point", "coordinates": [ 11.131547, 46.013587 ] } },
{ "type": "Feature", "properties": { "stop_id": 123, "stop_code": "26010z", "stop_name": "Mattarello \"Ronchi\"", "stop_desc": null, "lat": 46.017229, "lon": 11.132453, "zone_id": 10110, "wheelchair_boarding": 2.0 }, "geometry": { "type": "Point", "coordinates": [ 11.132453, 46.017229 ] } },
{ "type": "Feature", "properties": { "stop_id": 124, "stop_code": "26010x", "stop_name": "Mattarello \"Ronchi\"", "stop_desc": null, "lat": 46.017316, "lon": 11.132591, "zone_id": 10110, "wheelchair_boarding": 2.0 }, "geometry": { "type": "Point", "coordinates": [ 11.132591, 46.017316 ] } },
{ "type": "Feature", "properties": { "stop_id": 125, "stop_code": "26025x", "stop_name": "Mattarello S.Leonardo", "stop_desc": null, "lat": 46.006539, "lon": 11.127593, "zone_id": 10110, "wheelchair_boarding": 2.0 }, "geometry": { "type": "Point", "coordinates": [ 11.127593, 46.006539 ] } },
{ "type": "Feature", "properties": { "stop_id": 127, "stop_code": "26020x", "stop_name": "Mattarello Catoni", "stop_desc": null, "lat": 46.009422, "lon": 11.128968, "zone_id": 10110, "wheelchair_boarding": 1.0 }, "geometry": { "type": "Point", "coordinates": [ 11.128968, 46.009422 ] } },
{ "type": "Feature", "properties": { "stop_id": 128, "stop_code": "26015x", "stop_name": "Mattarello Rio Stolzano", "stop_desc": null, "lat": 46.002959, "lon": 11.126782, "zone_id": 10110, "wheelchair_boarding": 2.0 }, "geometry": { "type": "Point", "coordinates": [ 11.126782, 46.002959 ] } },
{ "type": "Feature", "properties": { "stop_id": 129, "stop_code": "23020z", "stop_name": "Meano Bivio S.Lazzaro", "stop_desc": null, "lat": 46.128153, "lon": 11.1152, "zone_id": 10110, "wheelchair_boarding": 2.0 }, "geometry": { "type": "Point", "coordinates": [ 11.1152, 46.128153 ] } },
{ "type": "Feature", "properties": { "stop_id": 130, "stop_code": "23020x", "stop_name": "Meano Bivio S.Lazzaro", "stop_desc": null, "lat": 46.127618, "lon": 11.115305, "zone_id": 10110, "wheelchair_boarding": 2.0 }, "geometry": { "type": "Point", "coordinates": [ 11.115305, 46.127618 ] } },
{ "type": "Feature", "properties": { "stop_id": 131, "stop_code": "23040z", "stop_name": "Sp 76 \"Piac\"", "stop_desc": null, "lat": 46.126807, "lon": 11.114628, "zone_id": 10110, "wheelchair_boarding": 1.0 }, "geometry": { "type": "Point", "coordinates": [ 11.114628, 46.126807 ] } },
{ "type": "Feature", "properties": { "stop_id": 133, "stop_code": "23035z", "stop_name": "Sp 76 \"Maregioli\"", "stop_desc": null, "lat": 46.130566, "lon": 11.121651, "zone_id": 10110, "wheelchair_boarding": 2.0 }, "geometry": { "type": "Point", "coordinates": [ 11.121651, 46.130566 ] } },
{ "type": "Feature", "properties": { "stop_id": 134, "stop_code": "23035x", "stop_name": "Sp 76 \"Maregioli\"", "stop_desc": null, "lat": 46.130305, "lon": 11.121329, "zone_id": 10110, "wheelchair_boarding": 1.0 }, "geometry": { "type": "Point", "coordinates": [ 11.121329, 46.130305 ] } },
{ "type": "Feature", "properties": { "stop_id": 135, "stop_code": "23005z", "stop_name": "Meano \"Campo Sportivo\"", "stop_desc": null, "lat": 46.128287, "lon": 11.120321, "zone_id": 10110, "wheelchair_boarding": 1.0 }, "geometry": { "type": "Point", "coordinates": [ 11.120321, 46.128287 ] } },
{ "type": "Feature", "properties": { "stop_id": 136, "stop_code": "23005x", "stop_name": "Meano \"Campo Sportivo\"", "stop_desc": null, "lat": 46.128357, "lon": 11.119865, "zone_id": 10110, "wheelchair_boarding": 1.0 }, "geometry": { "type": "Point", "coordinates": [ 11.119865, 46.128357 ] } },
{ "type": "Feature", "properties": { "stop_id": 137, "stop_code": "23015z", "stop_name": "Meano \"Cimitero\"", "stop_desc": null, "lat": 46.125734, "lon": 11.118399, "zone_id": 10110, "wheelchair_boarding": 1.0 }, "geometry": { "type": "Point", "coordinates": [ 11.118399, 46.125734 ] } },
{ "type": "Feature", "properties": { "stop_id": 138, "stop_code": "23015x", "stop_name": "Meano \"Cimitero\"", "stop_desc": null, "lat": 46.125503, "lon": 11.118357, "zone_id": 10110, "wheelchair_boarding": 1.0 }, "geometry": { "type": "Point", "coordinates": [ 11.118357, 46.125503 ] } },
{ "type": "Feature", "properties": { "stop_id": 139, "stop_code": "23045z", "stop_name": "Sp 76 \"Via Rossa\"", "stop_desc": null, "lat": 46.119793, "lon": 11.111463, "zone_id": 10110, "wheelchair_boarding": 2.0 }, "geometry": { "type": "Point", "coordinates": [ 11.111463, 46.119793 ] } },
{ "type": "Feature", "properties": { "stop_id": 140, "stop_code": "23045x", "stop_name": "Sp 76 \"Via Rossa\"", "stop_desc": null, "lat": 46.11965, "lon": 11.111323, "zone_id": 10110, "wheelchair_boarding": 2.0 }, "geometry": { "type": "Point", "coordinates": [ 11.111323, 46.11965 ] } },
{ "type": "Feature", "properties": { "stop_id": 141, "stop_code": "23025z", "stop_name": "Meano Piazza Dell'assunta", "stop_desc": null, "lat": 46.122693, "lon": 11.116859, "zone_id": 10110, "wheelchair_boarding": 2.0 }, "geometry": { "type": "Point", "coordinates": [ 11.116859, 46.122693 ] } },
{ "type": "Feature", "properties": { "stop_id": 142, "stop_code": "23030x", "stop_name": "Meano Portoni", "stop_desc": null, "lat": 46.123508, "lon": 11.116937, "zone_id": 10110, "wheelchair_boarding": 2.0 }, "geometry": { "type": "Point", "coordinates": [ 11.116937, 46.123508 ] } },
{ "type": "Feature", "properties": { "stop_id": 143, "stop_code": "23055z", "stop_name": "Sp 76 Dos di Lamar", "stop_desc": null, "lat": 46.124991, "lon": 11.113511, "zone_id": 10110, "wheelchair_boarding": 2.0 }, "geometry": { "type": "Point", "coordinates": [ 11.113511, 46.124991 ] } },
{ "type": "Feature", "properties": { "stop_id": 144, "stop_code": "23055x", "stop_name": "Sp 76 Dos di Lamar", "stop_desc": null, "lat": 46.124688, "lon": 11.112827, "zone_id": 10110, "wheelchair_boarding": 1.0 }, "geometry": { "type": "Point", "coordinates": [ 11.112827, 46.124688 ] } },
{ "type": "Feature", "properties": { "stop_id": 145, "stop_code": "25405z", "stop_name": "Mesiano \"Fac. Ingegneria\"", "stop_desc": null, "lat": 46.067111, "lon": 11.139552, "zone_id": 10110, "wheelchair_boarding": 1.0 }, "geometry": { "type": "Point", "coordinates": [ 11.139552, 46.067111 ] } },
{ "type": "Feature", "properties": { "stop_id": 146, "stop_code": "25405x", "stop_name": "Mesiano \"Fac. Ingegneria\"", "stop_desc": null, "lat": 46.067201, "lon": 11.139594, "zone_id": 10110, "wheelchair_boarding": 1.0 }, "geometry": { "type": "Point", "coordinates": [ 11.139594, 46.067201 ] } },
{ "type": "Feature", "properties": { "stop_id": 147, "stop_code": "25410z", "stop_name": "Mesiano \"Stazione Fs\"", "stop_desc": null, "lat": 46.064922, "lon": 11.141795, "zone_id": 10110, "wheelchair_boarding": 1.0 }, "geometry": { "type": "Point", "coordinates": [ 11.141795, 46.064922 ] } },
{ "type": "Feature", "properties": { "stop_id": 148, "stop_code": "25410x", "stop_name": "Mesiano \"Stazione Fs\"", "stop_desc": null, "lat": 46.065054, "lon": 11.141743, "zone_id": 10110, "wheelchair_boarding": 1.0 }, "geometry": { "type": "Point", "coordinates": [ 11.141743, 46.065054 ] } },
{ "type": "Feature", "properties": { "stop_id": 149, "stop_code": "25045z", "stop_name": "Povo Valoni", "stop_desc": null, "lat": 46.065426, "lon": 11.146084, "zone_id": 10110, "wheelchair_boarding": 1.0 }, "geometry": { "type": "Point", "coordinates": [ 11.146084, 46.065426 ] } },
{ "type": "Feature", "properties": { "stop_id": 150, "stop_code": "25045x", "stop_name": "Povo Valoni", "stop_desc": null, "lat": 46.065751, "lon": 11.146343, "zone_id": 10110, "wheelchair_boarding": 1.0 }, "geometry": { "type": "Point", "coordinates": [ 11.146343, 46.065751 ] } },
{ "type": "Feature", "properties": { "stop_id": 151, "stop_code": "24510c", "stop_name": "Montevaccino", "stop_desc": null, "lat": 46.108248, "lon": 11.14267, "zone_id": 10110, "wheelchair_boarding": null }, "geometry": { "type": "Point", "coordinates": [ 11.14267, 46.108248 ] } },
{ "type": "Feature", "properties": { "stop_id": 152, "stop_code": "24515z", "stop_name": "Montevaccino di Sotto", "stop_desc": null, "lat": 46.109413, "lon": 11.140128, "zone_id": 10110, "wheelchair_boarding": 2.0 }, "geometry": { "type": "Point", "coordinates": [ 11.140128, 46.109413 ] } },
{ "type": "Feature", "properties": { "stop_id": 153, "stop_code": "24515x", "stop_name": "Montevaccino di Sotto", "stop_desc": null, "lat": 46.109498, "lon": 11.140077, "zone_id": 10110, "wheelchair_boarding": 2.0 }, "geometry": { "type": "Point", "coordinates": [ 11.140077, 46.109498 ] } },
{ "type": "Feature", "properties": { "stop_id": 154, "stop_code": "24520z", "stop_name": "Sp 131 \"Paganin\"", "stop_desc": null, "lat": 46.106369, "lon": 11.137467, "zone_id": 10110, "wheelchair_boarding": 2.0 }, "geometry": { "type": "Point", "coordinates": [ 11.137467, 46.106369 ] } },
{ "type": "Feature", "properties": { "stop_id": 155, "stop_code": "24520x", "stop_name": "Sp 131 \"Paganin\"", "stop_desc": null, "lat": 46.106393, "lon": 11.137553, "zone_id": 10110, "wheelchair_boarding": 2.0 }, "geometry": { "type": "Point", "coordinates": [ 11.137553, 46.106393 ] } },
{ "type": "Feature", "properties": { "stop_id": 156, "stop_code": "24505z", "stop_name": "M.Vaccino \"Maso Librar\"", "stop_desc": null, "lat": 46.11041, "lon": 11.138496, "zone_id": 10110, "wheelchair_boarding": 2.0 }, "geometry": { "type": "Point", "coordinates": [ 11.138496, 46.11041 ] } },
{ "type": "Feature", "properties": { "stop_id": 157, "stop_code": "24505x", "stop_name": "M.Vaccino \"Maso Librar\"", "stop_desc": null, "lat": 46.110514, "lon": 11.138462, "zone_id": 10110, "wheelchair_boarding": 2.0 }, "geometry": { "type": "Point", "coordinates": [ 11.138462, 46.110514 ] } },
{ "type": "Feature", "properties": { "stop_id": 158, "stop_code": "28055z", "stop_name": "Ss 45 \"Montevideo\"", "stop_desc": null, "lat": 46.080315, "lon": 11.098555, "zone_id": 10110, "wheelchair_boarding": 2.0 }, "geometry": { "type": "Point", "coordinates": [ 11.098555, 46.080315 ] } },
{ "type": "Feature", "properties": { "stop_id": 159, "stop_code": "25640z", "stop_name": "Villazzano Valnigra", "stop_desc": null, "lat": 46.052083, "lon": 11.146588, "zone_id": 10110, "wheelchair_boarding": 1.0 }, "geometry": { "type": "Point", "coordinates": [ 11.146588, 46.052083 ] } },
{ "type": "Feature", "properties": { "stop_id": 160, "stop_code": "25640x", "stop_name": "Villazzano Valnigra", "stop_desc": null, "lat": 46.052091, "lon": 11.146369, "zone_id": 10110, "wheelchair_boarding": 1.0 }, "geometry": { "type": "Point", "coordinates": [ 11.146369, 46.052091 ] } },
{ "type": "Feature", "properties": { "stop_id": 161, "stop_code": "25105c", "stop_name": "Oltrecastello", "stop_desc": null, "lat": 46.072734, "lon": 11.161992, "zone_id": 10110, "wheelchair_boarding": null }, "geometry": { "type": "Point", "coordinates": [ 11.161992, 46.072734 ] } },
{ "type": "Feature", "properties": { "stop_id": 162, "stop_code": "21300x", "stop_name": "F.Lli Fontana Gen. Cantore", "stop_desc": null, "lat": 46.076884, "lon": 11.118989, "zone_id": 10110, "wheelchair_boarding": 1.0 }, "geometry": { "type": "Point", "coordinates": [ 11.118989, 46.076884 ] } },
{ "type": "Feature", "properties": { "stop_id": 163, "stop_code": "20115c", "stop_name": "Piazza Dante \"Palazzo Pat\"", "stop_desc": null, "lat": 46.072301, "lon": 11.120437, "zone_id": 10110, "wheelchair_boarding": 1.0 }, "geometry": { "type": "Point", "coordinates": [ 11.120437, 46.072301 ] } },
{ "type": "Feature", "properties": { "stop_id": 165, "stop_code": "21545-", "stop_name": "Piazza di Fiera", "stop_desc": null, "lat": 46.065117, "lon": 11.123289, "zone_id": 10110, "wheelchair_boarding": null }, "geometry": { "type": "Point", "coordinates": [ 11.123289, 46.065117 ] } },
{ "type": "Feature", "properties": { "stop_id": 166, "stop_code": "21595x", "stop_name": "S.Francesco Porta Nuova", "stop_desc": null, "lat": 46.06689, "lon": 11.126409, "zone_id": 10110, "wheelchair_boarding": 1.0 }, "geometry": { "type": "Point", "coordinates": [ 11.126409, 46.06689 ] } },
{ "type": "Feature", "properties": { "stop_id": 167, "stop_code": "21560z", "stop_name": "Piazza Vicenza", "stop_desc": null, "lat": 46.062096, "lon": 11.132883, "zone_id": 10110, "wheelchair_boarding": null }, "geometry": { "type": "Point", "coordinates": [ 11.132883, 46.062096 ] } },
{ "type": "Feature", "properties": { "stop_id": 168, "stop_code": "21560x", "stop_name": "Piazza Vicenza", "stop_desc": null, "lat": 46.062261, "lon": 11.132819, "zone_id": 10110, "wheelchair_boarding": null }, "geometry": { "type": "Point", "coordinates": [ 11.132819, 46.062261 ] } },
{ "type": "Feature", "properties": { "stop_id": 171, "stop_code": "21175z", "stop_name": "Brescia \"Piedicastello\"", "stop_desc": null, "lat": 46.070815, "lon": 11.113433, "zone_id": 10110, "wheelchair_boarding": 1.0 }, "geometry": { "type": "Point", "coordinates": [ 11.113433, 46.070815 ] } },
{ "type": "Feature", "properties": { "stop_id": 172, "stop_code": "21175x", "stop_name": "Brescia \"Piedicastello\"", "stop_desc": null, "lat": 46.070531, "lon": 11.111447, "zone_id": 10110, "wheelchair_boarding": 1.0 }, "geometry": { "type": "Point", "coordinates": [ 11.111447, 46.070531 ] } },
{ "type": "Feature", "properties": { "stop_id": 173, "stop_code": "21625-", "stop_name": "Tangenziale Ovest Pezcoller", "stop_desc": null, "lat": 46.047882, "lon": 11.11346, "zone_id": 10110, "wheelchair_boarding": 2.0 }, "geometry": { "type": "Point", "coordinates": [ 11.11346, 46.047882 ] } },
{ "type": "Feature", "properties": { "stop_id": 174, "stop_code": "24605z", "stop_name": "Ponte Lodovico", "stop_desc": null, "lat": 46.069376, "lon": 11.138945, "zone_id": 10110, "wheelchair_boarding": null }, "geometry": { "type": "Point", "coordinates": [ 11.138945, 46.069376 ] } },
{ "type": "Feature", "properties": { "stop_id": 175, "stop_code": "24605x", "stop_name": "Ponte Lodovico", "stop_desc": null, "lat": 46.069514, "lon": 11.140184, "zone_id": 10110, "wheelchair_boarding": null }, "geometry": { "type": "Point", "coordinates": [ 11.140184, 46.069514 ] } },
{ "type": "Feature", "properties": { "stop_id": 176, "stop_code": "21745x", "stop_name": "Venezia \"Port'aquila\"", "stop_desc": null, "lat": 46.069863, "lon": 11.12824, "zone_id": 10110, "wheelchair_boarding": 2.0 }, "geometry": { "type": "Point", "coordinates": [ 11.12824, 46.069863 ] } },
{ "type": "Feature", "properties": { "stop_id": 177, "stop_code": "21225z", "stop_name": "Cervara \"Port'aquila\"", "stop_desc": null, "lat": 46.070192, "lon": 11.128072, "zone_id": 10110, "wheelchair_boarding": 2.0 }, "geometry": { "type": "Point", "coordinates": [ 11.128072, 46.070192 ] } },
{ "type": "Feature", "properties": { "stop_id": 178, "stop_code": "21225x", "stop_name": "Cervara \"Port'aquila\"", "stop_desc": null, "lat": 46.070054, "lon": 11.12791, "zone_id": 10110, "wheelchair_boarding": 1.0 }, "geometry": { "type": "Point", "coordinates": [ 11.12791, 46.070054 ] } },
{ "type": "Feature", "properties": { "stop_id": 179, "stop_code": "25505z", "stop_name": "Spré Pinara", "stop_desc": null, "lat": 46.06749, "lon": 11.161268, "zone_id": 10110, "wheelchair_boarding": 1.0 }, "geometry": { "type": "Point", "coordinates": [ 11.161268, 46.06749 ] } },
{ "type": "Feature", "properties": { "stop_id": 180, "stop_code": "25505x", "stop_name": "Spré Pinara", "stop_desc": null, "lat": 46.067189, "lon": 11.160763, "zone_id": 10110, "wheelchair_boarding": 1.0 }, "geometry": { "type": "Point", "coordinates": [ 11.160763, 46.067189 ] } },
{ "type": "Feature", "properties": { "stop_id": 181, "stop_code": "25005z", "stop_name": "Povo \"Casa di Riposo\"", "stop_desc": null, "lat": 46.065739, "lon": 11.159706, "zone_id": 10110, "wheelchair_boarding": 1.0 }, "geometry": { "type": "Point", "coordinates": [ 11.159706, 46.065739 ] } },
{ "type": "Feature", "properties": { "stop_id": 182, "stop_code": "25005x", "stop_name": "Povo \"Casa di Riposo\"", "stop_desc": null, "lat": 46.065543, "lon": 11.159557, "zone_id": 10110, "wheelchair_boarding": 1.0 }, "geometry": { "type": "Point", "coordinates": [ 11.159557, 46.065543 ] } },
{ "type": "Feature", "properties": { "stop_id": 183, "stop_code": "25010z", "stop_name": "Povo \"Centro Civico\"", "stop_desc": null, "lat": 46.06411, "lon": 11.151992, "zone_id": 10110, "wheelchair_boarding": 1.0 }, "geometry": { "type": "Point", "coordinates": [ 11.151992, 46.06411 ] } },
{ "type": "Feature", "properties": { "stop_id": 184, "stop_code": "25010x", "stop_name": "Povo \"Centro Civico\"", "stop_desc": null, "lat": 46.06387, "lon": 11.151952, "zone_id": 10110, "wheelchair_boarding": 2.0 }, "geometry": { "type": "Point", "coordinates": [ 11.151952, 46.06387 ] } },
{ "type": "Feature", "properties": { "stop_id": 185, "stop_code": "25035z", "stop_name": "Povo S.Agata", "stop_desc": null, "lat": 46.066341, "lon": 11.156734, "zone_id": 10110, "wheelchair_boarding": 1.0 }, "geometry": { "type": "Point", "coordinates": [ 11.156734, 46.066341 ] } },
{ "type": "Feature", "properties": { "stop_id": 186, "stop_code": "25030z", "stop_name": "Povo Piazza Manci", "stop_desc": null, "lat": 46.065879, "lon": 11.154677, "zone_id": 10110, "wheelchair_boarding": 1.0 }, "geometry": { "type": "Point", "coordinates": [ 11.154677, 46.065879 ] } },
{ "type": "Feature", "properties": { "stop_id": 187, "stop_code": "25030x", "stop_name": "Povo Piazza Manci", "stop_desc": null, "lat": 46.065939, "lon": 11.154528, "zone_id": 10110, "wheelchair_boarding": 2.0 }, "geometry": { "type": "Point", "coordinates": [ 11.154528, 46.065939 ] } },
{ "type": "Feature", "properties": { "stop_id": 188, "stop_code": "25015z", "stop_name": "Povo \"Fac. Scienze\"", "stop_desc": null, "lat": 46.063156, "lon": 11.150091, "zone_id": 10110, "wheelchair_boarding": 1.0 }, "geometry": { "type": "Point", "coordinates": [ 11.150091, 46.063156 ] } },
{ "type": "Feature", "properties": { "stop_id": 189, "stop_code": "25015x", "stop_name": "Povo \"Fac. Scienze\"", "stop_desc": null, "lat": 46.063282, "lon": 11.150174, "zone_id": 10110, "wheelchair_boarding": 1.0 }, "geometry": { "type": "Point", "coordinates": [ 11.150174, 46.063282 ] } },
{ "type": "Feature", "properties": { "stop_id": 190, "stop_code": "25020z", "stop_name": "Povo \"Polo Sociale\"", "stop_desc": null, "lat": 46.06546, "lon": 11.158013, "zone_id": 10110, "wheelchair_boarding": 2.0 }, "geometry": { "type": "Point", "coordinates": [ 11.158013, 46.06546 ] } },
{ "type": "Feature", "properties": { "stop_id": 191, "stop_code": "25020x", "stop_name": "Povo \"Polo Sociale\"", "stop_desc": null, "lat": 46.065689, "lon": 11.157889, "zone_id": 10110, "wheelchair_boarding": 1.0 }, "geometry": { "type": "Point", "coordinates": [ 11.157889, 46.065689 ] } },
{ "type": "Feature", "properties": { "stop_id": 192, "stop_code": "27035n", "stop_name": "Ravina Masere", "stop_desc": null, "lat": 46.039047, "lon": 11.111615, "zone_id": 10110, "wheelchair_boarding": 2.0 }, "geometry": { "type": "Point", "coordinates": [ 11.111615, 46.039047 ] } },
{ "type": "Feature", "properties": { "stop_id": 193, "stop_code": "27035s", "stop_name": "Ravina Masere", "stop_desc": null, "lat": 46.039286, "lon": 11.112482, "zone_id": 10110, "wheelchair_boarding": 1.0 }, "geometry": { "type": "Point", "coordinates": [ 11.112482, 46.039286 ] } },
{ "type": "Feature", "properties": { "stop_id": 194, "stop_code": "27010z", "stop_name": "Ravina \"Case Itea\"", "stop_desc": null, "lat": 46.037329, "lon": 11.114055, "zone_id": 10110, "wheelchair_boarding": 1.0 }, "geometry": { "type": "Point", "coordinates": [ 11.114055, 46.037329 ] } },
{ "type": "Feature", "properties": { "stop_id": 195, "stop_code": "27010x", "stop_name": "Ravina \"Case Itea\"", "stop_desc": null, "lat": 46.037956, "lon": 11.114081, "zone_id": 10110, "wheelchair_boarding": 2.0 }, "geometry": { "type": "Point", "coordinates": [ 11.114081, 46.037956 ] } },
{ "type": "Feature", "properties": { "stop_id": 196, "stop_code": "27020-", "stop_name": "Ravina Chiesa", "stop_desc": null, "lat": 46.03773, "lon": 11.107763, "zone_id": 10110, "wheelchair_boarding": 2.0 }, "geometry": { "type": "Point", "coordinates": [ 11.107763, 46.03773 ] } },
{ "type": "Feature", "properties": { "stop_id": 197, "stop_code": "27045-", "stop_name": "Ravina Piazza", "stop_desc": null, "lat": 46.038007, "lon": 11.108836, "zone_id": 10110, "wheelchair_boarding": 1.0 }, "geometry": { "type": "Point", "coordinates": [ 11.108836, 46.038007 ] } },
{ "type": "Feature", "properties": { "stop_id": 198, "stop_code": "27040z", "stop_name": "Ravina Per Belvedere", "stop_desc": null, "lat": 46.04147, "lon": 11.106068, "zone_id": 10110, "wheelchair_boarding": 2.0 }, "geometry": { "type": "Point", "coordinates": [ 11.106068, 46.04147 ] } },
{ "type": "Feature", "properties": { "stop_id": 199, "stop_code": "27040x", "stop_name": "Ravina Per Belvedere", "stop_desc": null, "lat": 46.040947, "lon": 11.106338, "zone_id": 10110, "wheelchair_boarding": 1.0 }, "geometry": { "type": "Point", "coordinates": [ 11.106338, 46.040947 ] } },
{ "type": "Feature", "properties": { "stop_id": 200, "stop_code": "27025z", "stop_name": "Ravina Del Ponte", "stop_desc": null, "lat": 46.04314, "lon": 11.111386, "zone_id": 10110, "wheelchair_boarding": 2.0 }, "geometry": { "type": "Point", "coordinates": [ 11.111386, 46.04314 ] } },
{ "type": "Feature", "properties": { "stop_id": 201, "stop_code": "27025x", "stop_name": "Ravina Del Ponte", "stop_desc": null, "lat": 46.041193, "lon": 11.113139, "zone_id": 10110, "wheelchair_boarding": 2.0 }, "geometry": { "type": "Point", "coordinates": [ 11.113139, 46.041193 ] } },
{ "type": "Feature", "properties": { "stop_id": 202, "stop_code": "20120c", "stop_name": "Piazza Dante \"Pal. Regione\"", "stop_desc": null, "lat": 46.071751, "lon": 11.1214, "zone_id": 10110, "wheelchair_boarding": 1.0 }, "geometry": { "type": "Point", "coordinates": [ 11.1214, 46.071751 ] } },
{ "type": "Feature", "properties": { "stop_id": 203, "stop_code": "27215z", "stop_name": "Romagnano Nord", "stop_desc": null, "lat": 46.020118, "lon": 11.110866, "zone_id": 10110, "wheelchair_boarding": 2.0 }, "geometry": { "type": "Point", "coordinates": [ 11.110866, 46.020118 ] } },
{ "type": "Feature", "properties": { "stop_id": 204, "stop_code": "27215x", "stop_name": "Romagnano Nord", "stop_desc": null, "lat": 46.020034, "lon": 11.110896, "zone_id": 10110, "wheelchair_boarding": 2.0 }, "geometry": { "type": "Point", "coordinates": [ 11.110896, 46.020034 ] } },
{ "type": "Feature", "properties": { "stop_id": 205, "stop_code": "27210z", "stop_name": "Romagnano Fontanelle", "stop_desc": null, "lat": 46.015241, "lon": 11.107137, "zone_id": 10110, "wheelchair_boarding": 2.0 }, "geometry": { "type": "Point", "coordinates": [ 11.107137, 46.015241 ] } },
{ "type": "Feature", "properties": { "stop_id": 206, "stop_code": "27210x", "stop_name": "Romagnano Fontanelle", "stop_desc": null, "lat": 46.014549, "lon": 11.106708, "zone_id": 10110, "wheelchair_boarding": 2.0 }, "geometry": { "type": "Point", "coordinates": [ 11.106708, 46.014549 ] } },
{ "type": "Feature", "properties": { "stop_id": 207, "stop_code": "27205z", "stop_name": "Romagnano 7 Fontane", "stop_desc": null, "lat": 46.014708, "lon": 11.105053, "zone_id": 10110, "wheelchair_boarding": 2.0 }, "geometry": { "type": "Point", "coordinates": [ 11.105053, 46.014708 ] } },
{ "type": "Feature", "properties": { "stop_id": 208, "stop_code": "27220c", "stop_name": "Romagnano Piazza Condini", "stop_desc": null, "lat": 46.017727, "lon": 11.10587, "zone_id": 10110, "wheelchair_boarding": 1.0 }, "geometry": { "type": "Point", "coordinates": [ 11.10587, 46.017727 ] } },
{ "type": "Feature", "properties": { "stop_id": 209, "stop_code": "27230z", "stop_name": "Romagnano Sud", "stop_desc": null, "lat": 46.013013, "lon": 11.105542, "zone_id": 10110, "wheelchair_boarding": 2.0 }, "geometry": { "type": "Point", "coordinates": [ 11.105542, 46.013013 ] } },
{ "type": "Feature", "properties": { "stop_id": 210, "stop_code": "27230x", "stop_name": "Romagnano Sud", "stop_desc": null, "lat": 46.01213, "lon": 11.104968, "zone_id": 10110, "wheelchair_boarding": 2.0 }, "geometry": { "type": "Point", "coordinates": [ 11.104968, 46.01213 ] } },
{ "type": "Feature", "properties": { "stop_id": 211, "stop_code": "27225z", "stop_name": "Romagnano Rimoni", "stop_desc": null, "lat": 46.016805, "lon": 11.108328, "zone_id": 10110, "wheelchair_boarding": 1.0 }, "geometry": { "type": "Point", "coordinates": [ 11.108328, 46.016805 ] } },
{ "type": "Feature", "properties": { "stop_id": 212, "stop_code": "27225x", "stop_name": "Romagnano Rimoni", "stop_desc": null, "lat": 46.016465, "lon": 11.108234, "zone_id": 10110, "wheelchair_boarding": 1.0 }, "geometry": { "type": "Point", "coordinates": [ 11.108234, 46.016465 ] } },
{ "type": "Feature", "properties": { "stop_id": 213, "stop_code": "22505c", "stop_name": "Roncafort", "stop_desc": null, "lat": 46.101226, "lon": 11.101583, "zone_id": 10110, "wheelchair_boarding": null }, "geometry": { "type": "Point", "coordinates": [ 11.101583, 46.101226 ] } },
{ "type": "Feature", "properties": { "stop_id": 214, "stop_code": "22230x", "stop_name": "Ss 12 \"Zona Ind.Le Ftm\"", "stop_desc": null, "lat": 46.120375, "lon": 11.105848, "zone_id": 10110, "wheelchair_boarding": 1.0 }, "geometry": { "type": "Point", "coordinates": [ 11.105848, 46.120375 ] } },
{ "type": "Feature", "properties": { "stop_id": 215, "stop_code": "25040z", "stop_name": "Povo Salé", "stop_desc": null, "lat": 46.062025, "lon": 11.151318, "zone_id": 10110, "wheelchair_boarding": 1.0 }, "geometry": { "type": "Point", "coordinates": [ 11.151318, 46.062025 ] } },
{ "type": "Feature", "properties": { "stop_id": 216, "stop_code": "25040x", "stop_name": "Povo Salé", "stop_desc": null, "lat": 46.062005, "lon": 11.150887, "zone_id": 10110, "wheelchair_boarding": 2.0 }, "geometry": { "type": "Point", "coordinates": [ 11.150887, 46.062005 ] } },
{ "type": "Feature", "properties": { "stop_id": 217, "stop_code": "21765z", "stop_name": "Verona \"S.Bartolameo\"", "stop_desc": null, "lat": 46.050654, "lon": 11.130531, "zone_id": 10110, "wheelchair_boarding": 1.0 }, "geometry": { "type": "Point", "coordinates": [ 11.130531, 46.050654 ] } },
{ "type": "Feature", "properties": { "stop_id": 218, "stop_code": "21765x", "stop_name": "Verona \"S.Bartolameo\"", "stop_desc": null, "lat": 46.051053, "lon": 11.130406, "zone_id": 10110, "wheelchair_boarding": 1.0 }, "geometry": { "type": "Point", "coordinates": [ 11.130406, 46.051053 ] } },
{ "type": "Feature", "properties": { "stop_id": 219, "stop_code": "24610x", "stop_name": "San Donà", "stop_desc": null, "lat": 46.07157, "lon": 11.138357, "zone_id": 10110, "wheelchair_boarding": 1.0 }, "geometry": { "type": "Point", "coordinates": [ 11.138357, 46.07157 ] } },
{ "type": "Feature", "properties": { "stop_id": 220, "stop_code": "24615z", "stop_name": "San Donà \"Chiesa\"", "stop_desc": null, "lat": 46.072151, "lon": 11.138386, "zone_id": 10110, "wheelchair_boarding": 2.0 }, "geometry": { "type": "Point", "coordinates": [ 11.138386, 46.072151 ] } },
{ "type": "Feature", "properties": { "stop_id": 222, "stop_code": "24610z", "stop_name": "San Donà", "stop_desc": null, "lat": 46.070882, "lon": 11.139489, "zone_id": 10110, "wheelchair_boarding": 2.0 }, "geometry": { "type": "Point", "coordinates": [ 11.139489, 46.070882 ] } },
{ "type": "Feature", "properties": { "stop_id": 223, "stop_code": "22225x", "stop_name": "Lamar Sponda Trentina", "stop_desc": null, "lat": 46.134482, "lon": 11.111548, "zone_id": 10110, "wheelchair_boarding": 1.0 }, "geometry": { "type": "Point", "coordinates": [ 11.111548, 46.134482 ] } },
{ "type": "Feature", "properties": { "stop_id": 224, "stop_code": "23305x", "stop_name": "San Lazzaro Ponte Avisio", "stop_desc": null, "lat": 46.137891, "lon": 11.118434, "zone_id": 10110, "wheelchair_boarding": 1.0 }, "geometry": { "type": "Point", "coordinates": [ 11.118434, 46.137891 ] } },
{ "type": "Feature", "properties": { "stop_id": 226, "stop_code": "25810e", "stop_name": "San Rocco Torricelle", "stop_desc": null, "lat": 46.038494, "lon": 11.145576, "zone_id": 10110, "wheelchair_boarding": 2.0 }, "geometry": { "type": "Point", "coordinates": [ 11.145576, 46.038494 ] } },
{ "type": "Feature", "properties": { "stop_id": 227, "stop_code": "25805-", "stop_name": "San Rocco Piazza", "stop_desc": null, "lat": 46.03626, "lon": 11.146204, "zone_id": 10110, "wheelchair_boarding": 1.0 }, "geometry": { "type": "Point", "coordinates": [ 11.146204, 46.03626 ] } },
{ "type": "Feature", "properties": { "stop_id": 228, "stop_code": "24905c", "stop_name": "Piazza Madonna Delle Laste", "stop_desc": null, "lat": 46.074105, "lon": 11.135279, "zone_id": 10110, "wheelchair_boarding": null }, "geometry": { "type": "Point", "coordinates": [ 11.135279, 46.074105 ] } },
{ "type": "Feature", "properties": { "stop_id": 229, "stop_code": "28035z", "stop_name": "Sopramonte Piazza Oveno", "stop_desc": null, "lat": 46.071342, "lon": 11.059187, "zone_id": 10110, "wheelchair_boarding": 2.0 }, "geometry": { "type": "Point", "coordinates": [ 11.059187, 46.071342 ] } },
{ "type": "Feature", "properties": { "stop_id": 230, "stop_code": "28030z", "stop_name": "Sopramonte Bivio Baselga", "stop_desc": null, "lat": 46.07555, "lon": 11.058451, "zone_id": 10110, "wheelchair_boarding": 2.0 }, "geometry": { "type": "Point", "coordinates": [ 11.058451, 46.07555 ] } },
{ "type": "Feature", "properties": { "stop_id": 231, "stop_code": "28030x", "stop_name": "Sopramonte Bivio Baselga", "stop_desc": null, "lat": 46.075587, "lon": 11.058645, "zone_id": 10110, "wheelchair_boarding": 2.0 }, "geometry": { "type": "Point", "coordinates": [ 11.058645, 46.075587 ] } },
{ "type": "Feature", "properties": { "stop_id": 232, "stop_code": "28025z", "stop_name": "Sopramonte \"Valle\"", "stop_desc": null, "lat": 46.075888, "lon": 11.055913, "zone_id": 10110, "wheelchair_boarding": 2.0 }, "geometry": { "type": "Point", "coordinates": [ 11.055913, 46.075888 ] } },
{ "type": "Feature", "properties": { "stop_id": 233, "stop_code": "28025x", "stop_name": "Sopramonte \"Valle\"", "stop_desc": null, "lat": 46.075948, "lon": 11.05575, "zone_id": 10110, "wheelchair_boarding": 2.0 }, "geometry": { "type": "Point", "coordinates": [ 11.05575, 46.075948 ] } },
{ "type": "Feature", "properties": { "stop_id": 234, "stop_code": "28020z", "stop_name": "Sopramonte \"Novai\"", "stop_desc": null, "lat": 46.067712, "lon": 11.061514, "zone_id": 10110, "wheelchair_boarding": 1.0 }, "geometry": { "type": "Point", "coordinates": [ 11.061514, 46.067712 ] } },
{ "type": "Feature", "properties": { "stop_id": 235, "stop_code": "28035c", "stop_name": "Sopramonte Piazza Oveno", "stop_desc": null, "lat": 46.071176, "lon": 11.059527, "zone_id": 10110, "wheelchair_boarding": 2.0 }, "geometry": { "type": "Point", "coordinates": [ 11.059527, 46.071176 ] } },
{ "type": "Feature", "properties": { "stop_id": 236, "stop_code": "28005z", "stop_name": "Sopramonte \"Bunaga\"", "stop_desc": null, "lat": 46.069285, "lon": 11.05707, "zone_id": 10110, "wheelchair_boarding": 1.0 }, "geometry": { "type": "Point", "coordinates": [ 11.05707, 46.069285 ] } },
{ "type": "Feature", "properties": { "stop_id": 237, "stop_code": "28005x", "stop_name": "Sopramonte \"Bunaga\"", "stop_desc": null, "lat": 46.069969, "lon": 11.057969, "zone_id": 10110, "wheelchair_boarding": 1.0 }, "geometry": { "type": "Point", "coordinates": [ 11.057969, 46.069969 ] } },
{ "type": "Feature", "properties": { "stop_id": 238, "stop_code": "22630c", "stop_name": "Spini di Gardolo", "stop_desc": null, "lat": 46.121625, "lon": 11.090102, "zone_id": 10110, "wheelchair_boarding": null }, "geometry": { "type": "Point", "coordinates": [ 11.090102, 46.121625 ] } },
{ "type": "Feature", "properties": { "stop_id": 239, "stop_code": "22620z", "stop_name": "Spini Linz", "stop_desc": null, "lat": 46.118514, "lon": 11.096121, "zone_id": 10110, "wheelchair_boarding": 2.0 }, "geometry": { "type": "Point", "coordinates": [ 11.096121, 46.118514 ] } },
{ "type": "Feature", "properties": { "stop_id": 240, "stop_code": "22620x", "stop_name": "Spini Linz", "stop_desc": null, "lat": 46.118533, "lon": 11.096514, "zone_id": 10110, "wheelchair_boarding": 2.0 }, "geometry": { "type": "Point", "coordinates": [ 11.096514, 46.118533 ] } },
{ "type": "Feature", "properties": { "stop_id": 241, "stop_code": "22605z", "stop_name": "Spini Monaco", "stop_desc": null, "lat": 46.11874, "lon": 11.092667, "zone_id": 10110, "wheelchair_boarding": 2.0 }, "geometry": { "type": "Point", "coordinates": [ 11.092667, 46.11874 ] } },
{ "type": "Feature", "properties": { "stop_id": 242, "stop_code": "22605x", "stop_name": "Spini Monaco", "stop_desc": null, "lat": 46.118457, "lon": 11.092762, "zone_id": 10110, "wheelchair_boarding": 2.0 }, "geometry": { "type": "Point", "coordinates": [ 11.092762, 46.118457 ] } },
{ "type": "Feature", "properties": { "stop_id": 243, "stop_code": "25510z", "stop_name": "Spré S.Lucia", "stop_desc": null, "lat": 46.06941, "lon": 11.161625, "zone_id": 10110, "wheelchair_boarding": 2.0 }, "geometry": { "type": "Point", "coordinates": [ 11.161625, 46.06941 ] } },
{ "type": "Feature", "properties": { "stop_id": 244, "stop_code": "25510x", "stop_name": "Spré S.Lucia", "stop_desc": null, "lat": 46.069213, "lon": 11.161184, "zone_id": 10110, "wheelchair_boarding": 2.0 }, "geometry": { "type": "Point", "coordinates": [ 11.161184, 46.069213 ] } },
{ "type": "Feature", "properties": { "stop_id": 245, "stop_code": "28045z", "stop_name": "Sp 85 \"Soraval\"", "stop_desc": null, "lat": 46.083412, "lon": 11.064273, "zone_id": 10110, "wheelchair_boarding": 1.0 }, "geometry": { "type": "Point", "coordinates": [ 11.064273, 46.083412 ] } },
{ "type": "Feature", "properties": { "stop_id": 246, "stop_code": "28045x", "stop_name": "Sp 85 \"Soraval\"", "stop_desc": null, "lat": 46.083174, "lon": 11.064109, "zone_id": 10110, "wheelchair_boarding": 2.0 }, "geometry": { "type": "Point", "coordinates": [ 11.064109, 46.083174 ] } },
{ "type": "Feature", "properties": { "stop_id": 247, "stop_code": "20125p", "stop_name": "Piazza Dante \"Stazione Fs\"", "stop_desc": null, "lat": 46.071756, "lon": 11.119511, "zone_id": 10110, "wheelchair_boarding": 1.0 }, "geometry": { "type": "Point", "coordinates": [ 11.119511, 46.071756 ] } },
{ "type": "Feature", "properties": { "stop_id": 248, "stop_code": "24715z", "stop_name": "Tavernaro Centro", "stop_desc": null, "lat": 46.081409, "lon": 11.154945, "zone_id": 10110, "wheelchair_boarding": 2.0 }, "geometry": { "type": "Point", "coordinates": [ 11.154945, 46.081409 ] } },
{ "type": "Feature", "properties": { "stop_id": 249, "stop_code": "24715x", "stop_name": "Tavernaro Centro", "stop_desc": null, "lat": 46.081506, "lon": 11.155013, "zone_id": 10110, "wheelchair_boarding": 1.0 }, "geometry": { "type": "Point", "coordinates": [ 11.155013, 46.081506 ] } },
{ "type": "Feature", "properties": { "stop_id": 250, "stop_code": "24705z", "stop_name": "Tavernaro \"Salet\"", "stop_desc": null, "lat": 46.081825, "lon": 11.157904, "zone_id": 10110, "wheelchair_boarding": 1.0 }, "geometry": { "type": "Point", "coordinates": [ 11.157904, 46.081825 ] } },
{ "type": "Feature", "properties": { "stop_id": 251, "stop_code": "24705x", "stop_name": "Tavernaro \"Salet\"", "stop_desc": null, "lat": 46.081977, "lon": 11.158399, "zone_id": 10110, "wheelchair_boarding": 1.0 }, "geometry": { "type": "Point", "coordinates": [ 11.158399, 46.081977 ] } },
{ "type": "Feature", "properties": { "stop_id": 252, "stop_code": "24710z", "stop_name": "Tavernaro \"Villa Clementi\"", "stop_desc": null, "lat": 46.080892, "lon": 11.157486, "zone_id": 10110, "wheelchair_boarding": 2.0 }, "geometry": { "type": "Point", "coordinates": [ 11.157486, 46.080892 ] } },
{ "type": "Feature", "properties": { "stop_id": 253, "stop_code": "24710x", "stop_name": "Tavernaro \"Villa Clementi\"", "stop_desc": null, "lat": 46.081286, "lon": 11.156045, "zone_id": 10110, "wheelchair_boarding": 2.0 }, "geometry": { "type": "Point", "coordinates": [ 11.156045, 46.081286 ] } },
{ "type": "Feature", "properties": { "stop_id": 255, "stop_code": "28305z", "stop_name": "Vela Alla Scala", "stop_desc": null, "lat": 46.078838, "lon": 11.103643, "zone_id": 10110, "wheelchair_boarding": 1.0 }, "geometry": { "type": "Point", "coordinates": [ 11.103643, 46.078838 ] } },
{ "type": "Feature", "properties": { "stop_id": 256, "stop_code": "28305x", "stop_name": "Vela Alla Scala", "stop_desc": null, "lat": 46.079042, "lon": 11.10342, "zone_id": 10110, "wheelchair_boarding": 1.0 }, "geometry": { "type": "Point", "coordinates": [ 11.10342, 46.079042 ] } },
{ "type": "Feature", "properties": { "stop_id": 257, "stop_code": "22030z", "stop_name": "Gardolo 4 Nov. Canova", "stop_desc": null, "lat": 46.098824, "lon": 11.112888, "zone_id": 10110, "wheelchair_boarding": 1.0 }, "geometry": { "type": "Point", "coordinates": [ 11.112888, 46.098824 ] } },
{ "type": "Feature", "properties": { "stop_id": 258, "stop_code": "22025z", "stop_name": "Gardolo 4 Nov. \"Piscina\"", "stop_desc": null, "lat": 46.104302, "lon": 11.112908, "zone_id": 10110, "wheelchair_boarding": 1.0 }, "geometry": { "type": "Point", "coordinates": [ 11.112908, 46.104302 ] } },
{ "type": "Feature", "properties": { "stop_id": 259, "stop_code": "22035z", "stop_name": "Gardolo 4 Nov. Soprasasso", "stop_desc": null, "lat": 46.106596, "lon": 11.112223, "zone_id": 10110, "wheelchair_boarding": 2.0 }, "geometry": { "type": "Point", "coordinates": [ 11.112223, 46.106596 ] } },
{ "type": "Feature", "properties": { "stop_id": 260, "stop_code": "21055x", "stop_name": "Adamello Gorizia", "stop_desc": null, "lat": 46.059886, "lon": 11.132267, "zone_id": 10110, "wheelchair_boarding": 2.0 }, "geometry": { "type": "Point", "coordinates": [ 11.132267, 46.059886 ] } },
{ "type": "Feature", "properties": { "stop_id": 261, "stop_code": "22020-", "stop_name": "Gardolo \"Stazione Ftm\"", "stop_desc": null, "lat": 46.107233, "lon": 11.103845, "zone_id": 10110, "wheelchair_boarding": 2.0 }, "geometry": { "type": "Point", "coordinates": [ 11.103845, 46.107233 ] } },
{ "type": "Feature", "properties": { "stop_id": 262, "stop_code": "22305n", "stop_name": "M. Rossi \"Stella D.Mattino\"", "stop_desc": null, "lat": 46.107391, "lon": 11.101207, "zone_id": 10110, "wheelchair_boarding": 1.0 }, "geometry": { "type": "Point", "coordinates": [ 11.101207, 46.107391 ] } },
{ "type": "Feature", "properties": { "stop_id": 263, "stop_code": "22305s", "stop_name": "M. Rossi \"Stella D.Mattino\"", "stop_desc": null, "lat": 46.107354, "lon": 11.100457, "zone_id": 10110, "wheelchair_boarding": 1.0 }, "geometry": { "type": "Point", "coordinates": [ 11.100457, 46.107354 ] } },
{ "type": "Feature", "properties": { "stop_id": 264, "stop_code": "21060x", "stop_name": "Al Desert Muredei", "stop_desc": null, "lat": 46.051317, "lon": 11.117311, "zone_id": 10110, "wheelchair_boarding": 2.0 }, "geometry": { "type": "Point", "coordinates": [ 11.117311, 46.051317 ] } },
{ "type": "Feature", "properties": { "stop_id": 265, "stop_code": "21060z", "stop_name": "Al Desert Muredei", "stop_desc": null, "lat": 46.050958, "lon": 11.117076, "zone_id": 10110, "wheelchair_boarding": 1.0 }, "geometry": { "type": "Point", "coordinates": [ 11.117076, 46.050958 ] } },
{ "type": "Feature", "properties": { "stop_id": 266, "stop_code": "21065x", "stop_name": "Al Desert Ragazzi Del '99", "stop_desc": null, "lat": 46.0469, "lon": 11.115712, "zone_id": 10110, "wheelchair_boarding": 1.0 }, "geometry": { "type": "Point", "coordinates": [ 11.115712, 46.0469 ] } },
{ "type": "Feature", "properties": { "stop_id": 267, "stop_code": "21065z", "stop_name": "Al Desert Ragazzi Del '99", "stop_desc": null, "lat": 46.047131, "lon": 11.115704, "zone_id": 10110, "wheelchair_boarding": 1.0 }, "geometry": { "type": "Point", "coordinates": [ 11.115704, 46.047131 ] } },
{ "type": "Feature", "properties": { "stop_id": 269, "stop_code": "21075z", "stop_name": "Apuleio \"Case Degasperi\"", "stop_desc": null, "lat": 46.073543, "lon": 11.115546, "zone_id": 10110, "wheelchair_boarding": 1.0 }, "geometry": { "type": "Point", "coordinates": [ 11.115546, 46.073543 ] } },
{ "type": "Feature", "properties": { "stop_id": 270, "stop_code": "21080z", "stop_name": "Apuleio \"Ponte S.Giorgio\"", "stop_desc": null, "lat": 46.076349, "lon": 11.114967, "zone_id": 10110, "wheelchair_boarding": 2.0 }, "geometry": { "type": "Point", "coordinates": [ 11.114967, 46.076349 ] } },
{ "type": "Feature", "properties": { "stop_id": 271, "stop_code": "21090z", "stop_name": "Asiago \"Cernidor\"", "stop_desc": null, "lat": 46.050295, "lon": 11.13724, "zone_id": 10110, "wheelchair_boarding": 2.0 }, "geometry": { "type": "Point", "coordinates": [ 11.13724, 46.050295 ] } },
{ "type": "Feature", "properties": { "stop_id": 272, "stop_code": "21085z", "stop_name": "Asiago \"Bellevue\"", "stop_desc": null, "lat": 46.053211, "lon": 11.136383, "zone_id": 10110, "wheelchair_boarding": 2.0 }, "geometry": { "type": "Point", "coordinates": [ 11.136383, 46.053211 ] } },
{ "type": "Feature", "properties": { "stop_id": 273, "stop_code": "21085x", "stop_name": "Asiago \"Bellevue\"", "stop_desc": null, "lat": 46.053087, "lon": 11.136438, "zone_id": 10110, "wheelchair_boarding": 2.0 }, "geometry": { "type": "Point", "coordinates": [ 11.136438, 46.053087 ] } },
{ "type": "Feature", "properties": { "stop_id": 274, "stop_code": "21090x", "stop_name": "Asiago \"Cernidor\"", "stop_desc": "v.Asiago fr.civ. 6 ang.v.de la Toresela", "lat": 46.049614, "lon": 11.137304, "zone_id": 10110, "wheelchair_boarding": 2.0 }, "geometry": { "type": "Point", "coordinates": [ 11.137304, 46.049614 ] } },
{ "type": "Feature", "properties": { "stop_id": 275, "stop_code": "21005z", "stop_name": "Castello Buonconsiglio", "stop_desc": null, "lat": 46.070388, "lon": 11.126826, "zone_id": 10110, "wheelchair_boarding": null }, "geometry": { "type": "Point", "coordinates": [ 11.126826, 46.070388 ] } },
{ "type": "Feature", "properties": { "stop_id": 276, "stop_code": "21645x", "stop_name": "Sanzio \"Castello\"", "stop_desc": null, "lat": 46.071903, "lon": 11.126008, "zone_id": 10110, "wheelchair_boarding": 1.0 }, "geometry": { "type": "Point", "coordinates": [ 11.126008, 46.071903 ] } },
{ "type": "Feature", "properties": { "stop_id": 277, "stop_code": "21110-", "stop_name": "Barbacovi \"Itg Pozzo\"", "stop_desc": null, "lat": 46.064413, "lon": 11.12985, "zone_id": 10110, "wheelchair_boarding": 1.0 }, "geometry": { "type": "Point", "coordinates": [ 11.12985, 46.064413 ] } },
{ "type": "Feature", "properties": { "stop_id": 278, "stop_code": "21680z", "stop_name": "Ss 47 Muralta", "stop_desc": null, "lat": 46.077053, "lon": 11.131799, "zone_id": 10110, "wheelchair_boarding": 2.0 }, "geometry": { "type": "Point", "coordinates": [ 11.131799, 46.077053 ] } },
{ "type": "Feature", "properties": { "stop_id": 279, "stop_code": "24315z", "stop_name": "Martignano Capitel", "stop_desc": null, "lat": 46.082249, "lon": 11.127221, "zone_id": 10110, "wheelchair_boarding": 2.0 }, "geometry": { "type": "Point", "coordinates": [ 11.127221, 46.082249 ] } },
{ "type": "Feature", "properties": { "stop_id": 280, "stop_code": "24315x", "stop_name": "Martignano Capitel", "stop_desc": null, "lat": 46.08168, "lon": 11.126846, "zone_id": 10110, "wheelchair_boarding": 1.0 }, "geometry": { "type": "Point", "coordinates": [ 11.126846, 46.08168 ] } },
{ "type": "Feature", "properties": { "stop_id": 281, "stop_code": "21120z", "stop_name": "Bettini \"Nido Mad. Bianca\"", "stop_desc": null, "lat": 46.040445, "lon": 11.135356, "zone_id": 10110, "wheelchair_boarding": 1.0 }, "geometry": { "type": "Point", "coordinates": [ 11.135356, 46.040445 ] } },
{ "type": "Feature", "properties": { "stop_id": 282, "stop_code": "21120x", "stop_name": "Bettini \"Nido Mad. Bianca\"", "stop_desc": null, "lat": 46.040111, "lon": 11.135449, "zone_id": 10110, "wheelchair_boarding": 1.0 }, "geometry": { "type": "Point", "coordinates": [ 11.135449, 46.040111 ] } },
{ "type": "Feature", "properties": { "stop_id": 283, "stop_code": "21125x", "stop_name": "Bezzi Filzi", "stop_desc": null, "lat": 46.058483, "lon": 11.119231, "zone_id": 10110, "wheelchair_boarding": 1.0 }, "geometry": { "type": "Point", "coordinates": [ 11.119231, 46.058483 ] } },
{ "type": "Feature", "properties": { "stop_id": 284, "stop_code": "21130z", "stop_name": "Bolghera \"S.Antonio\"", "stop_desc": null, "lat": 46.058168, "lon": 11.1312, "zone_id": 10110, "wheelchair_boarding": 1.0 }, "geometry": { "type": "Point", "coordinates": [ 11.1312, 46.058168 ] } },
{ "type": "Feature", "properties": { "stop_id": 285, "stop_code": "22210x", "stop_name": "Lamar \"Sottostazione Enel\"", "stop_desc": null, "lat": 46.131117, "lon": 11.110231, "zone_id": 10110, "wheelchair_boarding": 1.0 }, "geometry": { "type": "Point", "coordinates": [ 11.110231, 46.131117 ] } },
{ "type": "Feature", "properties": { "stop_id": 286, "stop_code": "22710x", "stop_name": "Ss 12 \"Pioppeto\"", "stop_desc": null, "lat": 46.108373, "lon": 11.108551, "zone_id": 10110, "wheelchair_boarding": 1.0 }, "geometry": { "type": "Point", "coordinates": [ 11.108551, 46.108373 ] } },
{ "type": "Feature", "properties": { "stop_id": 287, "stop_code": "22715x", "stop_name": "Ss 12 Bivio Meano", "stop_desc": null, "lat": 46.115871, "lon": 11.10624, "zone_id": 10110, "wheelchair_boarding": 1.0 }, "geometry": { "type": "Point", "coordinates": [ 11.10624, 46.115871 ] } },
{ "type": "Feature", "properties": { "stop_id": 288, "stop_code": "22720x", "stop_name": "Ss 12 Canova", "stop_desc": null, "lat": 46.098968, "lon": 11.111801, "zone_id": 10110, "wheelchair_boarding": 1.0 }, "geometry": { "type": "Point", "coordinates": [ 11.111801, 46.098968 ] } },
{ "type": "Feature", "properties": { "stop_id": 289, "stop_code": "22705x", "stop_name": "Ss 12 \"Paludi\"", "stop_desc": "via Bolzano incrocio via Noce", "lat": 46.102642, "lon": 11.110517, "zone_id": 10110, "wheelchair_boarding": 1.0 }, "geometry": { "type": "Point", "coordinates": [ 11.110517, 46.102642 ] } },
{ "type": "Feature", "properties": { "stop_id": 290, "stop_code": "22720z", "stop_name": "Ss 12 Canova", "stop_desc": null, "lat": 46.100402, "lon": 11.111543, "zone_id": 10110, "wheelchair_boarding": 1.0 }, "geometry": { "type": "Point", "coordinates": [ 11.111543, 46.100402 ] } },
{ "type": "Feature", "properties": { "stop_id": 291, "stop_code": "21135x", "stop_name": "Brennero \"Bren Center\"", "stop_desc": null, "lat": 46.091515, "lon": 11.115307, "zone_id": 10110, "wheelchair_boarding": 1.0 }, "geometry": { "type": "Point", "coordinates": [ 11.115307, 46.091515 ] } },
{ "type": "Feature", "properties": { "stop_id": 292, "stop_code": "21135z", "stop_name": "Brennero \"Bren Center\"", "stop_desc": null, "lat": 46.091499, "lon": 11.115601, "zone_id": 10110, "wheelchair_boarding": 1.0 }, "geometry": { "type": "Point", "coordinates": [ 11.115601, 46.091499 ] } },
{ "type": "Feature", "properties": { "stop_id": 293, "stop_code": "21165z", "stop_name": "Brennero Marconi", "stop_desc": null, "lat": 46.08323, "lon": 11.120204, "zone_id": 10110, "wheelchair_boarding": 1.0 }, "geometry": { "type": "Point", "coordinates": [ 11.120204, 46.08323 ] } },
{ "type": "Feature", "properties": { "stop_id": 294, "stop_code": "21160z", "stop_name": "Brennero Malvasia", "stop_desc": null, "lat": 46.077968, "lon": 11.123274, "zone_id": 10110, "wheelchair_boarding": 1.0 }, "geometry": { "type": "Point", "coordinates": [ 11.123274, 46.077968 ] } },
{ "type": "Feature", "properties": { "stop_id": 295, "stop_code": "21165x", "stop_name": "Brennero Marconi", "stop_desc": null, "lat": 46.083704, "lon": 11.119817, "zone_id": 10110, "wheelchair_boarding": 1.0 }, "geometry": { "type": "Point", "coordinates": [ 11.119817, 46.083704 ] } },
{ "type": "Feature", "properties": { "stop_id": 296, "stop_code": "21145x", "stop_name": "Brennero \"Magnete\"", "stop_desc": null, "lat": 46.089309, "lon": 11.116571, "zone_id": 10110, "wheelchair_boarding": 1.0 }, "geometry": { "type": "Point", "coordinates": [ 11.116571, 46.089309 ] } },
{ "type": "Feature", "properties": { "stop_id": 297, "stop_code": "21140z", "stop_name": "Brennero \"Ex Scalo Filzi\"", "stop_desc": null, "lat": 46.080071, "lon": 11.122109, "zone_id": 10110, "wheelchair_boarding": 1.0 }, "geometry": { "type": "Point", "coordinates": [ 11.122109, 46.080071 ] } },
{ "type": "Feature", "properties": { "stop_id": 298, "stop_code": "21140x", "stop_name": "Brennero \"Ex Scalo Filzi\"", "stop_desc": null, "lat": 46.078474, "lon": 11.122797, "zone_id": 10110, "wheelchair_boarding": 1.0 }, "geometry": { "type": "Point", "coordinates": [ 11.122797, 46.078474 ] } },
{ "type": "Feature", "properties": { "stop_id": 300, "stop_code": "21155z", "stop_name": "Brennero \"Tridente\"", "stop_desc": null, "lat": 46.08648, "lon": 11.11843, "zone_id": 10110, "wheelchair_boarding": 1.0 }, "geometry": { "type": "Point", "coordinates": [ 11.11843, 46.08648 ] } },
{ "type": "Feature", "properties": { "stop_id": 301, "stop_code": "21190x", "stop_name": "Brigata Acqui \"Ite Tambosi\"", "stop_desc": null, "lat": 46.065447, "lon": 11.128453, "zone_id": 10110, "wheelchair_boarding": 1.0 }, "geometry": { "type": "Point", "coordinates": [ 11.128453, 46.065447 ] } },
{ "type": "Feature", "properties": { "stop_id": 303, "stop_code": "22510z", "stop_name": "Roncafort Bettine", "stop_desc": null, "lat": 46.097554, "lon": 11.102563, "zone_id": 10110, "wheelchair_boarding": 2.0 }, "geometry": { "type": "Point", "coordinates": [ 11.102563, 46.097554 ] } },
{ "type": "Feature", "properties": { "stop_id": 304, "stop_code": "21040z", "stop_name": "Caneppele Goio", "stop_desc": null, "lat": 46.094442, "lon": 11.105189, "zone_id": 10110, "wheelchair_boarding": 2.0 }, "geometry": { "type": "Point", "coordinates": [ 11.105189, 46.094442 ] } },
{ "type": "Feature", "properties": { "stop_id": 305, "stop_code": "21040x", "stop_name": "Caneppele Goio", "stop_desc": null, "lat": 46.094446, "lon": 11.10508, "zone_id": 10110, "wheelchair_boarding": 2.0 }, "geometry": { "type": "Point", "coordinates": [ 11.10508, 46.094446 ] } },
{ "type": "Feature", "properties": { "stop_id": 306, "stop_code": "21675z", "stop_name": "Cervara Cereria", "stop_desc": null, "lat": 46.074217, "lon": 11.128394, "zone_id": 10110, "wheelchair_boarding": 2.0 }, "geometry": { "type": "Point", "coordinates": [ 11.128394, 46.074217 ] } },
{ "type": "Feature", "properties": { "stop_id": 307, "stop_code": "21675x", "stop_name": "Cervara Cereria", "stop_desc": null, "lat": 46.074148, "lon": 11.128427, "zone_id": 10110, "wheelchair_boarding": 2.0 }, "geometry": { "type": "Point", "coordinates": [ 11.128427, 46.074148 ] } },
{ "type": "Feature", "properties": { "stop_id": 308, "stop_code": "24325z", "stop_name": "Martignano Cesarini", "stop_desc": null, "lat": 46.086329, "lon": 11.129247, "zone_id": 10110, "wheelchair_boarding": 2.0 }, "geometry": { "type": "Point", "coordinates": [ 11.129247, 46.086329 ] } },
{ "type": "Feature", "properties": { "stop_id": 309, "stop_code": "24325x", "stop_name": "Martignano Cesarini", "stop_desc": null, "lat": 46.087089, "lon": 11.129618, "zone_id": 10110, "wheelchair_boarding": 2.0 }, "geometry": { "type": "Point", "coordinates": [ 11.129618, 46.087089 ] } },
{ "type": "Feature", "properties": { "stop_id": 310, "stop_code": "21240z", "stop_name": "Conci De Riccabona", "stop_desc": null, "lat": 46.039514, "lon": 11.140832, "zone_id": 10110, "wheelchair_boarding": 2.0 }, "geometry": { "type": "Point", "coordinates": [ 11.140832, 46.039514 ] } },
{ "type": "Feature", "properties": { "stop_id": 311, "stop_code": "21240x", "stop_name": "Conci De Riccabona", "stop_desc": null, "lat": 46.039362, "lon": 11.140403, "zone_id": 10110, "wheelchair_boarding": 1.0 }, "geometry": { "type": "Point", "coordinates": [ 11.140403, 46.039362 ] } },
{ "type": "Feature", "properties": { "stop_id": 312, "stop_code": "21235z", "stop_name": "Conci Ferrovia", "stop_desc": null, "lat": 46.039317, "lon": 11.137726, "zone_id": 10110, "wheelchair_boarding": 2.0 }, "geometry": { "type": "Point", "coordinates": [ 11.137726, 46.039317 ] } },
{ "type": "Feature", "properties": { "stop_id": 313, "stop_code": "21235x", "stop_name": "Conci Ferrovia", "stop_desc": null, "lat": 46.039824, "lon": 11.137235, "zone_id": 10110, "wheelchair_boarding": 2.0 }, "geometry": { "type": "Point", "coordinates": [ 11.137235, 46.039824 ] } },
{ "type": "Feature", "properties": { "stop_id": 314, "stop_code": "21255z", "stop_name": "Degasperi Anna Frank", "stop_desc": null, "lat": 46.050201, "lon": 11.124067, "zone_id": 10110, "wheelchair_boarding": 1.0 }, "geometry": { "type": "Point", "coordinates": [ 11.124067, 46.050201 ] } },
{ "type": "Feature", "properties": { "stop_id": 315, "stop_code": "21255x", "stop_name": "Degasperi Anna Frank", "stop_desc": null, "lat": 46.051157, "lon": 11.122932, "zone_id": 10110, "wheelchair_boarding": 1.0 }, "geometry": { "type": "Point", "coordinates": [ 11.122932, 46.051157 ] } },
{ "type": "Feature", "properties": { "stop_id": 316, "stop_code": "21250z", "stop_name": "Degasperi \"Palazzo Stella\"", "stop_desc": null, "lat": 46.0431, "lon": 11.129397, "zone_id": 10110, "wheelchair_boarding": 1.0 }, "geometry": { "type": "Point", "coordinates": [ 11.129397, 46.0431 ] } },
{ "type": "Feature", "properties": { "stop_id": 317, "stop_code": "21250x", "stop_name": "Degasperi \"Palazzo Stella\"", "stop_desc": null, "lat": 46.0429, "lon": 11.129774, "zone_id": 10110, "wheelchair_boarding": 1.0 }, "geometry": { "type": "Point", "coordinates": [ 11.129774, 46.0429 ] } },
{ "type": "Feature", "properties": { "stop_id": 318, "stop_code": "21245z", "stop_name": "Degasperi \"Big Center\"", "stop_desc": null, "lat": 46.044844, "lon": 11.128022, "zone_id": 10110, "wheelchair_boarding": 1.0 }, "geometry": { "type": "Point", "coordinates": [ 11.128022, 46.044844 ] } },
{ "type": "Feature", "properties": { "stop_id": 319, "stop_code": "21245x", "stop_name": "Degasperi \"Big Center\"", "stop_desc": null, "lat": 46.045018, "lon": 11.128138, "zone_id": 10110, "wheelchair_boarding": 2.0 }, "geometry": { "type": "Point", "coordinates": [ 11.128138, 46.045018 ] } },
{ "type": "Feature", "properties": { "stop_id": 320, "stop_code": "21260z", "stop_name": "Degasperi La Clarina", "stop_desc": null, "lat": 46.048007, "lon": 11.126793, "zone_id": 10110, "wheelchair_boarding": 1.0 }, "geometry": { "type": "Point", "coordinates": [ 11.126793, 46.048007 ] } },
{ "type": "Feature", "properties": { "stop_id": 321, "stop_code": "21260x", "stop_name": "Degasperi La Clarina", "stop_desc": null, "lat": 46.04867, "lon": 11.126205, "zone_id": 10110, "wheelchair_boarding": 1.0 }, "geometry": { "type": "Point", "coordinates": [ 11.126205, 46.04867 ] } },
{ "type": "Feature", "properties": { "stop_id": 322, "stop_code": "21275z", "stop_name": "Dei Mille \"Villa Igea\"", "stop_desc": null, "lat": 46.062502, "lon": 11.127822, "zone_id": 10110, "wheelchair_boarding": 1.0 }, "geometry": { "type": "Point", "coordinates": [ 11.127822, 46.062502 ] } },
{ "type": "Feature", "properties": { "stop_id": 323, "stop_code": "21275x", "stop_name": "Dei Mille \"Villa Igea\"", "stop_desc": null, "lat": 46.062524, "lon": 11.127957, "zone_id": 10110, "wheelchair_boarding": 1.0 }, "geometry": { "type": "Point", "coordinates": [ 11.127957, 46.062524 ] } },
{ "type": "Feature", "properties": { "stop_id": 324, "stop_code": "25610z", "stop_name": "Villazzano \"Villa De Mersi\"", "stop_desc": null, "lat": 46.048201, "lon": 11.143371, "zone_id": 10110, "wheelchair_boarding": 1.0 }, "geometry": { "type": "Point", "coordinates": [ 11.143371, 46.048201 ] } },
{ "type": "Feature", "properties": { "stop_id": 325, "stop_code": "24330z", "stop_name": "Martignano Costiole", "stop_desc": null, "lat": 46.092338, "lon": 11.132591, "zone_id": 10110, "wheelchair_boarding": 1.0 }, "geometry": { "type": "Point", "coordinates": [ 11.132591, 46.092338 ] } },
{ "type": "Feature", "properties": { "stop_id": 326, "stop_code": "24330x", "stop_name": "Martignano Costiole", "stop_desc": null, "lat": 46.092456, "lon": 11.1325, "zone_id": 10110, "wheelchair_boarding": 2.0 }, "geometry": { "type": "Point", "coordinates": [ 11.1325, 46.092456 ] } },
{ "type": "Feature", "properties": { "stop_id": 327, "stop_code": "24320z", "stop_name": "Martignano Castori", "stop_desc": null, "lat": 46.083464, "lon": 11.127864, "zone_id": 10110, "wheelchair_boarding": 2.0 }, "geometry": { "type": "Point", "coordinates": [ 11.127864, 46.083464 ] } },
{ "type": "Feature", "properties": { "stop_id": 328, "stop_code": "24320x", "stop_name": "Martignano Castori", "stop_desc": null, "lat": 46.083438, "lon": 11.127722, "zone_id": 10110, "wheelchair_boarding": 1.0 }, "geometry": { "type": "Point", "coordinates": [ 11.127722, 46.083438 ] } },
{ "type": "Feature", "properties": { "stop_id": 329, "stop_code": "21290x", "stop_name": "Dos Trento Mariano", "stop_desc": null, "lat": 46.074583, "lon": 11.11342, "zone_id": 10110, "wheelchair_boarding": 1.0 }, "geometry": { "type": "Point", "coordinates": [ 11.11342, 46.074583 ] } },
{ "type": "Feature", "properties": { "stop_id": 330, "stop_code": "21285x", "stop_name": "Dos Trento Apuleio", "stop_desc": null, "lat": 46.073035, "lon": 11.114821, "zone_id": 10110, "wheelchair_boarding": 1.0 }, "geometry": { "type": "Point", "coordinates": [ 11.114821, 46.073035 ] } },
{ "type": "Feature", "properties": { "stop_id": 331, "stop_code": "21030x", "stop_name": "Ponte S.Giorgio", "stop_desc": null, "lat": 46.077012, "lon": 11.114109, "zone_id": 10110, "wheelchair_boarding": null }, "geometry": { "type": "Point", "coordinates": [ 11.114109, 46.077012 ] } },
{ "type": "Feature", "properties": { "stop_id": 333, "stop_code": "21300z", "stop_name": "F.Lli Fontana Gen. Cantore", "stop_desc": null, "lat": 46.077014, "lon": 11.118701, "zone_id": 10110, "wheelchair_boarding": 1.0 }, "geometry": { "type": "Point", "coordinates": [ 11.118701, 46.077014 ] } },
{ "type": "Feature", "properties": { "stop_id": 334, "stop_code": "21295z", "stop_name": "F.Lli Fontana Oberziner", "stop_desc": null, "lat": 46.077447, "lon": 11.11678, "zone_id": 10110, "wheelchair_boarding": 1.0 }, "geometry": { "type": "Point", "coordinates": [ 11.11678, 46.077447 ] } },
{ "type": "Feature", "properties": { "stop_id": 335, "stop_code": "21310z", "stop_name": "Fermi La Clarina", "stop_desc": null, "lat": 46.048694, "lon": 11.129102, "zone_id": 10110, "wheelchair_boarding": 1.0 }, "geometry": { "type": "Point", "coordinates": [ 11.129102, 46.048694 ] } },
{ "type": "Feature", "properties": { "stop_id": 338, "stop_code": "21315z", "stop_name": "Fogazzaro \"Piscina\"", "stop_desc": null, "lat": 46.056256, "lon": 11.130446, "zone_id": 10110, "wheelchair_boarding": 1.0 }, "geometry": { "type": "Point", "coordinates": [ 11.130446, 46.056256 ] } },
{ "type": "Feature", "properties": { "stop_id": 339, "stop_code": "21315x", "stop_name": "Fogazzaro \"Piscina\"", "stop_desc": null, "lat": 46.055999, "lon": 11.129676, "zone_id": 10110, "wheelchair_boarding": 1.0 }, "geometry": { "type": "Point", "coordinates": [ 11.129676, 46.055999 ] } },
{ "type": "Feature", "properties": { "stop_id": 340, "stop_code": "25815z", "stop_name": "Ss 349 Pozzata", "stop_desc": null, "lat": 46.03951, "lon": 11.144092, "zone_id": 10110, "wheelchair_boarding": 2.0 }, "geometry": { "type": "Point", "coordinates": [ 11.144092, 46.03951 ] } },
{ "type": "Feature", "properties": { "stop_id": 342, "stop_code": "21320x", "stop_name": "Gandhi \"Parco Anna Frank\"", "stop_desc": null, "lat": 46.051768, "lon": 11.124369, "zone_id": 10110, "wheelchair_boarding": 1.0 }, "geometry": { "type": "Point", "coordinates": [ 11.124369, 46.051768 ] } },
{ "type": "Feature", "properties": { "stop_id": 344, "stop_code": "21335x", "stop_name": "Gerola \"Ospedale S.Chiara\"", "stop_desc": null, "lat": 46.058333, "lon": 11.133082, "zone_id": 10110, "wheelchair_boarding": 1.0 }, "geometry": { "type": "Point", "coordinates": [ 11.133082, 46.058333 ] } },
{ "type": "Feature", "properties": { "stop_id": 345, "stop_code": "21345z", "stop_name": "Ghiaie Monte Baldo", "stop_desc": null, "lat": 46.056236, "lon": 11.11612, "zone_id": 10110, "wheelchair_boarding": 2.0 }, "geometry": { "type": "Point", "coordinates": [ 11.11612, 46.056236 ] } },
{ "type": "Feature", "properties": { "stop_id": 346, "stop_code": "21340z", "stop_name": "Ghiaie \"Giardinerie\"", "stop_desc": null, "lat": 46.05317, "lon": 11.116794, "zone_id": 10110, "wheelchair_boarding": 1.0 }, "geometry": { "type": "Point", "coordinates": [ 11.116794, 46.05317 ] } },
{ "type": "Feature", "properties": { "stop_id": 347, "stop_code": "21350x", "stop_name": "Giovanelli \"Osp. S.Camillo\"", "stop_desc": null, "lat": 46.0655, "lon": 11.131873, "zone_id": 10110, "wheelchair_boarding": 1.0 }, "geometry": { "type": "Point", "coordinates": [ 11.131873, 46.0655 ] } },
{ "type": "Feature", "properties": { "stop_id": 348, "stop_code": "21360z", "stop_name": "Giusti Pascoli", "stop_desc": null, "lat": 46.060282, "lon": 11.118954, "zone_id": 10110, "wheelchair_boarding": 1.0 }, "geometry": { "type": "Point", "coordinates": [ 11.118954, 46.060282 ] } },
{ "type": "Feature", "properties": { "stop_id": 349, "stop_code": "21355x", "stop_name": "Giusti \"Arcivescovile\"", "stop_desc": null, "lat": 46.061521, "lon": 11.119038, "zone_id": 10110, "wheelchair_boarding": 1.0 }, "geometry": { "type": "Point", "coordinates": [ 11.119038, 46.061521 ] } },
{ "type": "Feature", "properties": { "stop_id": 350, "stop_code": "21010c", "stop_name": "Gocciadoro \"Arcate\"", "stop_desc": null, "lat": 46.054869, "lon": 11.133747, "zone_id": 10110, "wheelchair_boarding": 1.0 }, "geometry": { "type": "Point", "coordinates": [ 11.133747, 46.054869 ] } },
{ "type": "Feature", "properties": { "stop_id": 351, "stop_code": "21365-", "stop_name": "Gocciadoro \"Poliambulatori\"", "stop_desc": null, "lat": 46.055632, "lon": 11.132219, "zone_id": 10110, "wheelchair_boarding": 1.0 }, "geometry": { "type": "Point", "coordinates": [ 11.132219, 46.055632 ] } },
{ "type": "Feature", "properties": { "stop_id": 352, "stop_code": "21370z", "stop_name": "Gorizia Adamello", "stop_desc": null, "lat": 46.059878, "lon": 11.131346, "zone_id": 10110, "wheelchair_boarding": 1.0 }, "geometry": { "type": "Point", "coordinates": [ 11.131346, 46.059878 ] } },
{ "type": "Feature", "properties": { "stop_id": 353, "stop_code": "21375x", "stop_name": "Gramsci \"Materna La Clarina\"", "stop_desc": null, "lat": 46.053331, "lon": 11.125535, "zone_id": 10110, "wheelchair_boarding": 1.0 }, "geometry": { "type": "Point", "coordinates": [ 11.125535, 46.053331 ] } },
{ "type": "Feature", "properties": { "stop_id": 354, "stop_code": "21380x", "stop_name": "Gramsci Einaudi", "stop_desc": null, "lat": 46.052639, "lon": 11.128171, "zone_id": 10110, "wheelchair_boarding": 2.0 }, "geometry": { "type": "Point", "coordinates": [ 11.128171, 46.052639 ] } },
{ "type": "Feature", "properties": { "stop_id": 355, "stop_code": "21390x", "stop_name": "Grazioli Brigata Acqui", "stop_desc": null, "lat": 46.067114, "lon": 11.128745, "zone_id": 10110, "wheelchair_boarding": 1.0 }, "geometry": { "type": "Point", "coordinates": [ 11.128745, 46.067114 ] } },
{ "type": "Feature", "properties": { "stop_id": 356, "stop_code": "21405z", "stop_name": "Guardini Gilli", "stop_desc": null, "lat": 46.091908, "lon": 11.119067, "zone_id": 10110, "wheelchair_boarding": 1.0 }, "geometry": { "type": "Point", "coordinates": [ 11.119067, 46.091908 ] } },
{ "type": "Feature", "properties": { "stop_id": 357, "stop_code": "21405x", "stop_name": "Guardini Gilli", "stop_desc": null, "lat": 46.091364, "lon": 11.119265, "zone_id": 10110, "wheelchair_boarding": 2.0 }, "geometry": { "type": "Point", "coordinates": [ 11.119265, 46.091364 ] } },
{ "type": "Feature", "properties": { "stop_id": 358, "stop_code": "21425z", "stop_name": "Lunelli \"Aci\"", "stop_desc": null, "lat": 46.092684, "lon": 11.119846, "zone_id": 10110, "wheelchair_boarding": 1.0 }, "geometry": { "type": "Point", "coordinates": [ 11.119846, 46.092684 ] } },
{ "type": "Feature", "properties": { "stop_id": 360, "stop_code": "21440x", "stop_name": "Maccani \"Rotatoria\"", "stop_desc": null, "lat": 46.082769, "lon": 11.114889, "zone_id": 10110, "wheelchair_boarding": 1.0 }, "geometry": { "type": "Point", "coordinates": [ 11.114889, 46.082769 ] } },
{ "type": "Feature", "properties": { "stop_id": 361, "stop_code": "21455z", "stop_name": "Maccani Commercio", "stop_desc": null, "lat": 46.091766, "lon": 11.10749, "zone_id": 10110, "wheelchair_boarding": 1.0 }, "geometry": { "type": "Point", "coordinates": [ 11.10749, 46.091766 ] } },
{ "type": "Feature", "properties": { "stop_id": 363, "stop_code": "21450z", "stop_name": "Maccani Campotrentino", "stop_desc": null, "lat": 46.085714, "lon": 11.112535, "zone_id": 10110, "wheelchair_boarding": 1.0 }, "geometry": { "type": "Point", "coordinates": [ 11.112535, 46.085714 ] } },
{ "type": "Feature", "properties": { "stop_id": 364, "stop_code": "21450x", "stop_name": "Maccani Campotrentino", "stop_desc": null, "lat": 46.085455, "lon": 11.112658, "zone_id": 10110, "wheelchair_boarding": 2.0 }, "geometry": { "type": "Point", "coordinates": [ 11.112658, 46.085455 ] } },
{ "type": "Feature", "properties": { "stop_id": 365, "stop_code": "21445z", "stop_name": "Maccani Abondi", "stop_desc": null, "lat": 46.080884, "lon": 11.116571, "zone_id": 10110, "wheelchair_boarding": 1.0 }, "geometry": { "type": "Point", "coordinates": [ 11.116571, 46.080884 ] } },
{ "type": "Feature", "properties": { "stop_id": 366, "stop_code": "21445x", "stop_name": "Maccani Abondi", "stop_desc": null, "lat": 46.080857, "lon": 11.116496, "zone_id": 10110, "wheelchair_boarding": 1.0 }, "geometry": { "type": "Point", "coordinates": [ 11.116496, 46.080857 ] } },
{ "type": "Feature", "properties": { "stop_id": 368, "stop_code": "21435z", "stop_name": "Maccani \"Polizia Locale\"", "stop_desc": null, "lat": 46.089845, "lon": 11.109059, "zone_id": 10110, "wheelchair_boarding": 1.0 }, "geometry": { "type": "Point", "coordinates": [ 11.109059, 46.089845 ] } },
{ "type": "Feature", "properties": { "stop_id": 369, "stop_code": "21435x", "stop_name": "Maccani \"Polizia Locale\"", "stop_desc": null, "lat": 46.090707, "lon": 11.10823, "zone_id": 10110, "wheelchair_boarding": 1.0 }, "geometry": { "type": "Point", "coordinates": [ 11.10823, 46.090707 ] } },
{ "type": "Feature", "properties": { "stop_id": 370, "stop_code": "21440z", "stop_name": "Maccani \"Rotatoria\"", "stop_desc": null, "lat": 46.082986, "lon": 11.114802, "zone_id": 10110, "wheelchair_boarding": 1.0 }, "geometry": { "type": "Point", "coordinates": [ 11.114802, 46.082986 ] } },
{ "type": "Feature", "properties": { "stop_id": 371, "stop_code": "21430z", "stop_name": "Maccani \"Ex Sloi\"", "stop_desc": null, "lat": 46.087967, "lon": 11.110639, "zone_id": 10110, "wheelchair_boarding": 1.0 }, "geometry": { "type": "Point", "coordinates": [ 11.110639, 46.087967 ] } },
{ "type": "Feature", "properties": { "stop_id": 372, "stop_code": "21430x", "stop_name": "Maccani \"Ex Sloi\"", "stop_desc": null, "lat": 46.087889, "lon": 11.110606, "zone_id": 10110, "wheelchair_boarding": 1.0 }, "geometry": { "type": "Point", "coordinates": [ 11.110606, 46.087889 ] } },
{ "type": "Feature", "properties": { "stop_id": 374, "stop_code": "21475z", "stop_name": "Marconi Solteri", "stop_desc": null, "lat": 46.084415, "lon": 11.121228, "zone_id": 10110, "wheelchair_boarding": 2.0 }, "geometry": { "type": "Point", "coordinates": [ 11.121228, 46.084415 ] } },
{ "type": "Feature", "properties": { "stop_id": 375, "stop_code": "21475x", "stop_name": "Marconi Solteri", "stop_desc": null, "lat": 46.084529, "lon": 11.121727, "zone_id": 10110, "wheelchair_boarding": 1.0 }, "geometry": { "type": "Point", "coordinates": [ 11.121727, 46.084529 ] } },
{ "type": "Feature", "properties": { "stop_id": 376, "stop_code": "25630z", "stop_name": "Villazzano Marzola", "stop_desc": null, "lat": 46.046735, "lon": 11.148768, "zone_id": 10110, "wheelchair_boarding": 2.0 }, "geometry": { "type": "Point", "coordinates": [ 11.148768, 46.046735 ] } },
{ "type": "Feature", "properties": { "stop_id": 377, "stop_code": "25630x", "stop_name": "Villazzano Marzola", "stop_desc": null, "lat": 46.046644, "lon": 11.14899, "zone_id": 10110, "wheelchair_boarding": 2.0 }, "geometry": { "type": "Point", "coordinates": [ 11.14899, 46.046644 ] } },
{ "type": "Feature", "properties": { "stop_id": 378, "stop_code": "25625z", "stop_name": "Villazzano Giordano", "stop_desc": null, "lat": 46.050762, "lon": 11.148486, "zone_id": 10110, "wheelchair_boarding": 2.0 }, "geometry": { "type": "Point", "coordinates": [ 11.148486, 46.050762 ] } },
{ "type": "Feature", "properties": { "stop_id": 379, "stop_code": "25625x", "stop_name": "Villazzano Giordano", "stop_desc": null, "lat": 46.050756, "lon": 11.148399, "zone_id": 10110, "wheelchair_boarding": 2.0 },