{
"type": "FeatureCollection",
"name": "stations_clean",
"crs": { "type": "name", "properties": { "name": "urn:ogc:def:crs:OGC:1.3:CRS84" } },
"features": [
{ "type": "Feature", "properties": { "station_id": 20, "name": "ZUFFO 2 - VIA DOS TRENTO", "desc": "ZUFFO 2 - VIA DOS TRENTO", "capacity": 12, "type": "linea", "lat": 46.075230179379929, "lon": 11.109654066782506 }, "geometry": { "type": "Point", "coordinates": [ 11.109654066782506, 46.075230179379929 ] } },
{ "type": "Feature", "properties": { "station_id": 30, "name": "PIEDICASTELLO in piazza di Piedicastello nel giardino Andrea Hofler", "desc": "PIEDICASTELLO in piazza di Piedicastello nel giardino Andrea Hofler", "capacity": 12, "type": "linea", "lat": 46.071211179212263, "lon": 11.113676474015776 }, "geometry": { "type": "Point", "coordinates": [ 11.113676474015776, 46.071211179212263 ] } },
{ "type": "Feature", "properties": { "station_id": 6, "name": "STAZIONE AUTOCORRIERE via Pozzo/via Torre Vanga", "desc": "STAZIONE AUTOCORRIERE via Pozzo/via Torre Vanga", "capacity": 22, "type": "linea", "lat": 46.070206944588357, "lon": 11.120214548486882 }, "geometry": { "type": "Point", "coordinates": [ 11.120214548486882, 46.070206944588357 ] } },
{ "type": "Feature", "properties": { "station_id": 2, "name": "TOP CENTER", "desc": "TOP CENTER", "capacity": 24, "type": "linea", "lat": 46.090191033897078, "lon": 11.118512916504224 }, "geometry": { "type": "Point", "coordinates": [ 11.118512916504224, 46.090191033897078 ] } },
{ "type": "Feature", "properties": { "station_id": 1, "name": "BREN CENTER via Guardini", "desc": "BREN CENTER via Guardini", "capacity": 18, "type": "linea", "lat": 46.094802473586206, "lon": 11.11769582379544 }, "geometry": { "type": "Point", "coordinates": [ 11.11769582379544, 46.094802473586206 ] } },
{ "type": "Feature", "properties": { "station_id": 3, "name": "PIAZZA DI CENTA", "desc": "PIAZZA DI CENTA", "capacity": 12, "type": "vis a vis", "lat": 46.075361504809862, "lon": 11.123877912065453 }, "geometry": { "type": "Point", "coordinates": [ 11.123877912065453, 46.075361504809862 ] } },
{ "type": "Feature", "properties": { "station_id": 12, "name": "AZIENDA SANITARIA via Degasperi", "desc": "AZIENDA SANITARIA via Degasperi", "capacity": 18, "type": "linea", "lat": 46.044391106189728, "lon": 11.128196525584578 }, "geometry": { "type": "Point", "coordinates": [ 11.128196525584578, 46.044391106189728 ] } },
{ "type": "Feature", "properties": { "station_id": 41, "name": "MATTARELLO - piazza Q. PERINI", "desc": "MATTARELLO - piazza Q. PERINI", "capacity": 6, "type": "vis a vis", "lat": 46.006988125582353, "lon": 11.128372864229664 }, "geometry": { "type": "Point", "coordinates": [ 11.128372864229664, 46.006988125582353 ] } },
{ "type": "Feature", "properties": { "station_id": 10, "name": "PISCINA via Fogazzaro/via Gocciadoro", "desc": "PISCINA via Fogazzaro/via Gocciadoro", "capacity": 12, "type": "linea", "lat": 46.056297000216446, "lon": 11.130925018139795 }, "geometry": { "type": "Point", "coordinates": [ 11.130925018139795, 46.056297000216446 ] } },
{ "type": "Feature", "properties": { "station_id": 9, "name": "CENTRO S. CHIARA via S. Croce", "desc": "CENTRO S. CHIARA via S. Croce", "capacity": 18, "type": "vis a vis", "lat": 46.063410330530687, "lon": 11.123877725859233 }, "geometry": { "type": "Point", "coordinates": [ 11.123877725859233, 46.063410330530687 ] } },
{ "type": "Feature", "properties": { "station_id": 8, "name": "UNIVERSITA' via Rosmini", "desc": "UNIVERSITA' via Rosmini", "capacity": 18, "type": "linea", "lat": 46.066341339197606, "lon": 11.1190042437006 }, "geometry": { "type": "Point", "coordinates": [ 11.1190042437006, 46.066341339197606 ] } },
{ "type": "Feature", "properties": { "station_id": 7, "name": "BIBLIOTECA via Torre Vanga/via Alfieri", "desc": "BIBLIOTECA via Torre Vanga/via Alfieri", "capacity": 24, "type": "vis a vis", "lat": 46.070441865028869, "lon": 11.121281565450479 }, "geometry": { "type": "Point", "coordinates": [ 11.121281565450479, 46.070441865028869 ] } },
{ "type": "Feature", "properties": { "station_id": 4, "name": "PIAZZA VENEZIA", "desc": "PIAZZA VENEZIA", "capacity": 24, "type": "linea", "lat": 46.067599314033743, "lon": 11.126992083366062 }, "geometry": { "type": "Point", "coordinates": [ 11.126992083366062, 46.067599314033743 ] } },
{ "type": "Feature", "properties": { "station_id": 15, "name": "MUSE corso del Lavoro e della Scienza", "desc": "MUSE corso del Lavoro e della Scienza", "capacity": 12, "type": "linea", "lat": 46.061521702471921, "lon": 11.115787571615435 }, "geometry": { "type": "Point", "coordinates": [ 11.115787571615435, 46.061521702471921 ] } },
{ "type": "Feature", "properties": { "station_id": 17, "name": "CENTRO SPORTIVO GARDOLO via IV Novembre", "desc": "CENTRO SPORTIVO GARDOLO via IV Novembre", "capacity": 12, "type": "vis a vis", "lat": 46.104499806431349, "lon": 11.112906640495595 }, "geometry": { "type": "Point", "coordinates": [ 11.112906640495595, 46.104499806431349 ] } },
{ "type": "Feature", "properties": { "station_id": 16, "name": "VIA BEZZI angolo via Vittorio Veneto", "desc": "VIA BEZZI angolo via Vittorio Veneto", "capacity": 9, "type": "linea", "lat": 46.058123889429524, "lon": 11.119305630089203 }, "geometry": { "type": "Point", "coordinates": [ 11.119305630089203, 46.058123889429524 ] } },
{ "type": "Feature", "properties": { "station_id": 11, "name": "STAZIONE FF.SS. - OSPEDALE via Gocciadoro/Staz. S. Chiara", "desc": "STAZIONE FF.SS. - OSPEDALE via Gocciadoro/Staz. S. Chiara", "capacity": 12, "type": "vis a vis", "lat": 46.054447639507053, "lon": 11.135553194486564 }, "geometry": { "type": "Point", "coordinates": [ 11.135553194486564, 46.054447639507053 ] } },
{ "type": "Feature", "properties": { "station_id": 19, "name": "VIA MADRUZZO", "desc": "VIA MADRUZZO", "capacity": 10, "type": "vis a vis", "lat": 46.063636906691684, "lon": 11.119276682103987 }, "geometry": { "type": "Point", "coordinates": [ 11.119276682103987, 46.063636906691684 ] } },
{ "type": "Feature", "properties": { "station_id": 13, "name": "LIDORNO - via Lidorno/park Trento sud", "desc": "LIDORNO - via Lidorno/park Trento sud", "capacity": 8, "type": "vis a vis", "lat": 46.033224854776542, "lon": 11.126337307271962 }, "geometry": { "type": "Point", "coordinates": [ 11.126337307271962, 46.033224854776542 ] } },
{ "type": "Feature", "properties": { "station_id": 18, "name": "VIA VANNETTI (sede PAT)", "desc": "VIA VANNETTI (sede PAT)", "capacity": 8, "type": "linea", "lat": 46.072819600608597, "lon": 11.12174398744113 }, "geometry": { "type": "Point", "coordinates": [ 11.12174398744113, 46.072819600608597 ] } },
{ "type": "Feature", "properties": { "station_id": 21, "name": "EX ATESINA - LIDL via Del Brennero", "desc": "EX ATESINA - LIDL via Del Brennero", "capacity": 12, "type": "linea", "lat": 46.083850947343201, "lon": 11.119505060897627 }, "geometry": { "type": "Point", "coordinates": [ 11.119505060897627, 46.083850947343201 ] } },
{ "type": "Feature", "properties": { "station_id": 22, "name": "CAMPO CONI corso degli Alpini", "desc": "CAMPO CONI corso degli Alpini", "capacity": 12, "type": "linea", "lat": 46.07978345328371, "lon": 11.11765313480001 }, "geometry": { "type": "Point", "coordinates": [ 11.11765313480001, 46.07978345328371 ] } },
{ "type": "Feature", "properties": { "station_id": 23, "name": "STUDENTATO MAYER corso Buonarroti", "desc": "STUDENTATO MAYER corso Buonarroti", "capacity": 12, "type": "linea", "lat": 46.073215056308179, "lon": 11.118011584146867 }, "geometry": { "type": "Point", "coordinates": [ 11.118011584146867, 46.073215056308179 ] } },
{ "type": "Feature", "properties": { "station_id": 24, "name": "VERONA viale Verona/via Olmi", "desc": "VERONA viale Verona/via Olmi", "capacity": 12, "type": "linea", "lat": 46.04937357420863, "lon": 11.131353929806929 }, "geometry": { "type": "Point", "coordinates": [ 11.131353929806929, 46.04937357420863 ] } },
{ "type": "Feature", "properties": { "station_id": 25, "name": "CLARINA incrocio via Degasperi - via Anna Frank", "desc": "CLARINA incrocio via Degasperi - via Anna Frank", "capacity": 12, "type": "linea", "lat": 46.050791980331404, "lon": 11.124016756409738 }, "geometry": { "type": "Point", "coordinates": [ 11.124016756409738, 46.050791980331404 ] } },
{ "type": "Feature", "properties": { "station_id": 26, "name": "BARBACOVI nei pressi dell'incrocio via Barbacovi-via Brigata Acqui", "desc": "BARBACOVI nei pressi dell'incrocio via Barbacovi-via Brigata Acqui", "capacity": 12, "type": "linea", "lat": 46.065100188445697, "lon": 11.127728283546954 }, "geometry": { "type": "Point", "coordinates": [ 11.127728283546954, 46.065100188445697 ] } },
{ "type": "Feature", "properties": { "station_id": 27, "name": "GARDOLO-EX SEGHERIA via Feininger/piazzale Groff", "desc": "GARDOLO-EX SEGHERIA via Feininger/piazzale Groff", "capacity": 6, "type": "linea", "lat": 46.107616271658294, "lon": 11.111922777623549 }, "geometry": { "type": "Point", "coordinates": [ 11.111922777623549, 46.107616271658294 ] } },
{ "type": "Feature", "properties": { "station_id": 28, "name": "MACCANI via Maccani/Comando di Polizia Locale", "desc": "MACCANI via Maccani/Comando di Polizia Locale", "capacity": 12, "type": "vis a vis", "lat": 46.090620478651566, "lon": 11.108933401957223 }, "geometry": { "type": "Point", "coordinates": [ 11.108933401957223, 46.090620478651566 ] } },
{ "type": "Feature", "properties": { "station_id": 29, "name": "CANOVA nel parcheggio del centro sportivo in via Paludi", "desc": "CANOVA nel parcheggio del centro sportivo in via Paludi", "capacity": 12, "type": "vis a vis", "lat": 46.099138408561949, "lon": 11.10938638480933 }, "geometry": { "type": "Point", "coordinates": [ 11.10938638480933, 46.099138408561949 ] } },
{ "type": "Feature", "properties": { "station_id": 38, "name": "PIEDICASTELLO EX ITALCEMENTI via Lungadige S. Nicolò", "desc": "PIEDICASTELLO EX ITALCEMENTI via Lungadige S. Nicolò", "capacity": 12, "type": "linea", "lat": 46.069469669543558, "lon": 11.113680084366944 }, "geometry": { "type": "Point", "coordinates": [ 11.113680084366944, 46.069469669543558 ] } },
{ "type": "Feature", "properties": { "station_id": 35, "name": "PALATRENTO via Fersina/via Bartali", "desc": "PALATRENTO via Fersina/via Bartali", "capacity": 12, "type": "linea", "lat": 46.040462501935515, "lon": 11.123857385388556 }, "geometry": { "type": "Point", "coordinates": [ 11.123857385388556, 46.040462501935515 ] } },
{ "type": "Feature", "properties": { "station_id": 36, "name": "RONCAFORT via Caneppele", "desc": "RONCAFORT via Caneppele", "capacity": 12, "type": "linea", "lat": 46.100110980004374, "lon": 11.10181660243021 }, "geometry": { "type": "Point", "coordinates": [ 11.10181660243021, 46.100110980004374 ] } },
{ "type": "Feature", "properties": { "station_id": 32, "name": "MADONNA BIANCA via Menguzzato / viale Verona", "desc": "VIA MENGUZZATO presso l'intersezione con viale Verona", "capacity": 12, "type": "linea", "lat": 46.042464432077068, "lon": 11.13145024181636 }, "geometry": { "type": "Point", "coordinates": [ 11.13145024181636, 46.042464432077068 ] } },
{ "type": "Feature", "properties": { "station_id": 34, "name": "OSPEDALE S. CHIARA Largo Medaglie d'Oro", "desc": "OSPEDALE S. CHIARA Largo Medaglie d'Oro", "capacity": 9, "type": "linea", "lat": 46.057580036802015, "lon": 11.132695783846945 }, "geometry": { "type": "Point", "coordinates": [ 11.132695783846945, 46.057580036802015 ] } },
{ "type": "Feature", "properties": { "station_id": 31, "name": "STAZIONE FF.SS. VILLAZZANO - via Asiago", "desc": "STAZIONE FF.SS. VILLAZZANO - via Asiago", "capacity": 12, "type": "linea", "lat": 46.044257307927005, "lon": 11.139449430055308 }, "geometry": { "type": "Point", "coordinates": [ 11.139449430055308, 46.044257307927005 ] } },
{ "type": "Feature", "properties": { "station_id": 33, "name": "GORIZIA via Gorizi/via Vicenza", "desc": "GORIZIA via Gorizi/via Vicenza", "capacity": 12, "type": "linea", "lat": 46.062058748252312, "lon": 11.13332582789447 }, "geometry": { "type": "Point", "coordinates": [ 11.13332582789447, 46.062058748252312 ] } },
{ "type": "Feature", "properties": { "station_id": 37, "name": "CIMITERO VILLAZZANO via Valnigra", "desc": "CIMITERO VILLAZZANO via Valnigra", "capacity": 12, "type": "linea", "lat": 46.051125500288634, "lon": 11.144872724800548 }, "geometry": { "type": "Point", "coordinates": [ 11.144872724800548, 46.051125500288634 ] } },
{ "type": "Feature", "properties": { "station_id": 39, "name": "PONTE DEI CAVALLEGGERI viale Rovereto / viale Verona", "desc": "PONTE DEI CAVALLEGGERI viale Rovereto / viale Verona", "capacity": 6, "type": "linea", "lat": 46.059028394776035, "lon": 11.127166260628647 }, "geometry": { "type": "Point", "coordinates": [ 11.127166260628647, 46.059028394776035 ] } },
{ "type": "Feature", "properties": { "station_id": 40, "name": "STUDENTATO SAN BARTOLAMEO via della Malpensada", "desc": "STUDENTATO SAN BARTOLAMEO via della Malpensada", "capacity": 12, "type": "linea", "lat": 46.048198289374518, "lon": 11.133707940784429 }, "geometry": { "type": "Point", "coordinates": [ 11.133707940784429, 46.048198289374518 ] } }
]
}
