stop_id,stop_code,stop_name,stop_desc,stop_lat,stop_lon,zone_id
1,0001,Trento. Autostazione,,46.070785,11.118457,0001
2,0001BS,Trento. Solteri Bivio Ss.12,,46.084046,11.119728,0001
3,0001BC,Trento. Bren Center,,46.091322,11.115660,0001
4,1010,Lavis,,46.138362,11.109135,1010
5,0954,S.Michele,,46.193685,11.132520,6110
6,1030,Salorno,,46.240611,11.208101,1030
7,1040,Laghetti,,46.271949,11.238970,1040
8,1050,Egna-Neumarkt,,46.315974,11.272446,1050
9,1059,Cela-Aguai Bivio,,46.291366,11.418715,1060
10,1060VA,Castello di F. Via Stazione,,46.282070,11.428963,1060
11,1060,Castello di Fiemme,,46.281012,11.434818,1060
12,1070BN,Cavalese. Bivio Carano,,46.287418,11.441658,1070
13,1070HG,Cavalese. Htl Garden,,46.289270,11.448063,1070
14,1070BL,Cavalese. Piazza Partigiani,,46.291892,11.455502,1070
15,1070PV,Cavalese. Piazza Verdi,,46.290336,11.460686,1070
16,1070,Cavalese. Autostazione,,46.287909,11.463231,1070
17,1190GD,Tesero. Giardino Dolomiti,,46.292467,11.484689,1190
18,1190LP,Tesero. Loc. Piera,,46.292228,11.492120,1190
19,1190,Tesero. Piazza Battisti,,46.288879,11.510906,1190
20,1200CC,Panchia'. Casa Cantoniera,,46.286998,11.532100,1200
21,1200,Panchia',,46.285515,11.541740,1200
22,1210,Ziano di Fiemme. Via Nazionale,,46.286636,11.559670,1210
23,1210RD,Ziano di Fiemme. Roda,,46.288371,11.569359,1210
24,1220BN,Predazzo. Borgo Nuovo,,46.306540,11.598949,1220
25,1220,Predazzo. Autostazione,,46.309522,11.604922,1220
26,1220IP,Predazzo. Distrib. Agip,,46.317180,11.597105,1220
27,1220LT,Predazzo. Impianti Latemar,,46.328662,11.600166,1220
28,1239,Mezzavalle,,46.337924,11.610365,1239
29,1240,Forno,,46.347286,11.625627,1240
30,1240AF,Forno. Albergo Foresta,,46.354425,11.633768,1240
31,1250CC,Moena. Caserma Carabinieri,,46.369234,11.652293,1250
32,1250AT,Moena. Albergo Trentino,,46.372945,11.655268,1250
34,1250PZ,Moena. Pezzè,,46.380760,11.665570,1250
35,1270HL,Soraga. Htl Al Lago,,46.392163,11.666737,1270
36,1270,Soraga,,46.396751,11.669549,1270
37,1280,Vigo di Fassa. Carpe Diem,,46.421412,11.676427,1280
38,1290,S.Giovanni. Htl Dolomiti,,46.420879,11.681906,1280
39,1300,Pozza di Fassa,,46.427263,11.682909,1300
40,1310,Pera di Fassa,,46.435753,11.690473,1310
41,1310AP,Pera di Fassa. Al Ponte,,46.441683,11.695465,1310
42,1320,Mazzin di Fassa,,46.457960,11.701361,1320
43,1330,Campestrin,,46.462705,11.714972,1330
44,1340,Fontanazzo,,46.469689,11.727811,1340
45,1350,Campitello. Piazza,,46.475648,11.740928,1350
46,1360CA,Canazei. Htl Caminetto,,46.479178,11.759193,1360
47,1360GR,Canazei. Gries,,46.477902,11.763957,1360
48,1360,Canazei. Via Pareda,,46.476195,11.770866,1360
49,1360FB,Canazei. Impianti Belvedere,,46.474085,11.774368,1360
50,1360IP,Canazei. Rotatoria Faloria,,46.471561,11.777812,1360
51,1380HA,Alba. Htl Ariston,,46.466322,11.780889,1380
52,1380,Alba. Via De Costa,,46.461951,11.782995,1380
53,1380FC,Alba. Impianti Ciampac,,46.459391,11.786084,1380
54,1390,Penia. Str. Pian Trevisan,,46.457433,11.791831,1390
55,1390PN,Penia. Htl Panarel,,46.456575,11.801529,1390
58,1390PR,Penia. Htl Panarel,,46.456710,11.801523,1390
59,1390RR,Penia. Str. Pian Trevisan,,46.457619,11.792331,1390
60,1380FR,Alba. Impianti Ciampac,,46.458437,11.789031,1380
61,1380RR,Alba. Via De Costa,,46.462159,11.782943,1380
62,1360IR,Canazei. Rotatoria Faloria,,46.471443,11.777931,1360
63,1360FR,Canazei. Impianti Belvedere,,46.474072,11.774719,1360
64,1360RR,Canazei. Gries,,46.477768,11.764654,1360
65,1360CR,Canazei. Htl Caminetto,,46.479392,11.759629,1360
66,1350RR,Campitello. Piazza,,46.476684,11.740902,1350
67,1340RR,Fontanazzo,,46.469610,11.726986,1340
68,1300UP,Pozza di Fassa,,46.427927,11.683273,1300
69,1070ST,Cavalese. Via Esterle,,46.293123,11.457258,1070
70,1070HR,Cavalese. Htl Garden,,46.289338,11.447858,1070
71,1040AT,Laghetti-Laag,,46.272133,11.238770,1040
72,1030RR,Salorno-Salurn,,46.240219,11.207185,1030
73,1010CS,Lavis,,46.137040,11.109579,1010
74,0001FS,Trento. Staz. Fs,,46.072601,11.120053,0001
77,0001AA,Trento. Assoc. Artigiani,,46.083017,11.120408,0001
79,0935,Gardolo. Via Bolzano,,46.108560,11.108750,0935
80,0935BS,Gardolo. Bivio Spini,,46.119077,11.106058,0937
81,0935LA,Gardolo. Loc.Lamar,,46.129072,11.109727,0937
82,1010VC,Lavis. Via Cembra 16,,46.143209,11.106615,1010
83,1010VB,Lavis. Via Bresadola,,46.143939,11.112485,1010
84,1010TO,Lavis. Via Cembra 50,,46.141936,11.114440,1010
85,1010MF,Maso Franch,,46.143817,11.118837,1071
86,1071CA,Mosana. Loc. Ai Castagnari,,46.150493,11.125736,1071
87,1071,Mosana,,46.154400,11.137227,1071
88,1072,Verla,,46.157056,11.152525,1072
89,1072CR,Verla. Cantina Rossi,,46.155284,11.156325,1072
90,1073,Valternigo,,46.160790,11.158786,1073
91,1074,Ville di Giovo,,46.165786,11.157337,1074
92,1074MR,Ville di Giovo. Maso Roncador,,46.162213,11.140582,1074
93,1091,Passo Croce,,46.161488,11.134618,1075
94,1075,Palu' di Giovo,,46.158216,11.140399,1075
95,1072BV,Verla. Bivio,,46.155899,11.160677,1072
96,1076,Ceola,,46.159677,11.171449,1076
97,1077,Lisignago,,46.160169,11.187697,1077
98,1078SL,Lisignago. Loc.Bedin,,46.164967,11.203561,1077
99,1078CI,Cembra. Cimitero,,46.174520,11.217344,1078
100,1078,Cembra,,46.174957,11.221710,1078
101,1078FA,Fadana,,46.177556,11.225067,1078
102,1078MO,Cembra. Loc.Molini,,46.180272,11.228393,1078
103,1079FB,Faver Bivio,,46.180960,11.231877,1079
104,1079,Faver,,46.181717,11.237790,1079
105,1079UF,Faver. Ufficio Postale,,46.183756,11.240750,1079
106,1079LP,Faver. Loc. Portegnago,,46.197033,11.246629,1079
107,1080CA,Valda. Capitello,,46.207070,11.262063,1080
108,1080,Valda,,46.206785,11.266459,1080
109,1081,Grumes,,46.221664,11.293926,1081
110,1082,Grauno,,46.229416,11.298250,1082
111,1084CN,Capriana. Case Nuove,,46.261034,11.339907,1084
112,1084,Capriana,,46.262790,11.339450,1084
113,1083,Capriana. Albergo Miravalle,,46.262058,11.343987,1084
114,1085,Carbonare-Rover,,46.266759,11.351740,1085
115,1087,Stramentizzo. Bivio,,46.266506,11.406481,1088
116,1088,Molina di Fiemme,,46.272943,11.417691,1088
117,1088VS,Molina di F. Via Segherie,,46.272417,11.424248,1088
118,1088SC,Molina di Fiemme. Chiesa,,46.274183,11.416701,1088
119,1060FT,Castello di Fiemme Conc.Fiat,,46.278943,11.430131,1060
121,1060RR,Castello di Fiemme,,46.281234,11.434746,1060
123,1088VR,Molina di Fiemme Via Segherie,,46.272410,11.424118,1088
124,1081RR,Grumes,,46.221406,11.294187,1081
125,1079RR,Faver,,46.181190,11.236667,1079
126,1078FR,Fadana,,46.178186,11.225986,1078
127,1078RR,Cembra,,46.175121,11.222040,1078
128,1077RR,Lisignago,,46.160228,11.187881,1077
129,1076RR,Ceola,,46.159590,11.170862,1076
130,1072RR,Verla,,46.157152,11.152806,1072
131,1010BR,Lavis. Via Bresadola,,46.143962,11.112741,1010
132,1010VR,Lavis. Via Cembra 16,,46.142758,11.105019,1010
133,0938,Lamar di Gardolo. Ss.12-Ftm,,46.125857,11.107857,0937
134,0935SS,Gardolo. Via Bolzano,,46.108391,11.108627,0935
135,0935CA,Gardolo. Cicli Moser,,46.102642,11.110465,0935
137,1127,Casatta Valfloriana,,46.250382,11.344527,1127
138,1128,Barcatta,,46.250423,11.349653,1128
139,1129,Villaggio Italo-Svizzero,,46.247856,11.346655,1129
140,1130,Dora',,46.251864,11.355629,1135
141,1131,Palu' di Sicina,,46.256918,11.363011,1135
142,1132,Casanova di Sicina,,46.241994,11.349804,1135
143,1133,Valle,,46.238606,11.351276,1135
144,1134,Montalbiano,,46.234427,11.355128,1135
145,1135,Sicina,,46.230006,11.358746,1135
532,0001VG,Trento. Via Giusti Cimitero,,46.063017,11.118982,0001
533,0001VE,Trento. Via V.Veneto,,46.057701,11.119288,0001
538,4070,Montesover,,46.217085,11.327081,4070
539,4070SV,Montesover-Strada Vernera,,46.218167,11.326636,4070
540,4070VE,Montesover-Strada Vernera 17,,46.217390,11.324140,4070
541,4070CA,Montesover-Carrozzeria,,46.215298,11.328098,4070
542,1125,Sveseri Bivio,,46.207641,11.327802,1141
543,1124,Piazzoli,,46.214260,11.323606,1123
544,1123,Facendi,,46.214916,11.321416,1123
546,1122,Sover,,46.223892,11.312413,1122
548,0946,Nave S.Felice,,46.164603,11.112264,0946
549,0943,Sorni. Bivio,,46.174732,11.122247,0944
551,0944,Sorni,,46.173837,11.120534,0944
552,0946RR,Nave S.Felice,,46.166611,11.112919,0946
557,1070IT,Cavalese. Case Itea,,46.289446,11.469194,1070
558,1070MC,Marco di Cavalese,,46.290187,11.476965,1070
562,1151,Masi di Cavalese,,46.283212,11.485244,1070
563,1151VC,Masi. Via Chiesa Civ.118,,46.284433,11.489103,1070
564,1070DR,Marco di Cavalese,,46.290229,11.477097,1070
565,1070IR,Cavalese. Case Itea,,46.289558,11.469406,1070
566,1150BS,Carano. Via Giovanelli 11,,46.292293,11.442654,1070
567,1150MU,Carano. Municipio,,46.292223,11.440482,1070
568,1150,Carano,,46.291791,11.438788,1070
569,1150BA,Carano. Via Giovanelli,,46.289851,11.438585,1070
570,1150GB,Carano. Garnì Belvedere,,46.287394,11.435850,1070
572,1152BP,Villaggio Veronza Bv.Pizzeria,,46.287844,11.428645,1152
574,1152VP,Villaggio Veronza Via Pale,,46.288770,11.431444,1152
575,1152HV,V.Veronza. Htl Veronza,,46.289866,11.433196,1152
578,0001ST,Trento. Via Valsugana,,46.068328,11.136284,0001
579,4010,Ponte Alto,,46.073788,11.150435,4010
580,4015,Pine'. Bivio,,46.081906,11.194966,1100
581,4021,Sille,,46.086064,11.202928,1100
582,4022BL,Madrano. Belvedere,,46.084669,11.210385,4022
584,4022,Madrano,,46.085925,11.214309,4022
585,4022VV,Madrano. Via Della Vizza,,46.091339,11.212176,4022
586,4023,Nogare',,46.103925,11.211295,4023
587,4029,S. Mauro. Bivio,,46.116608,11.222359,4024
588,4024,Tressilla,,46.128797,11.237223,4024
589,4025UP,Baselga. Municipio,,46.130018,11.243837,4025
590,4025,Baselga di Pine'. Lago,,46.135502,11.249832,4025
591,4032,Sternigo. Bivio,,46.141639,11.257918,4032
592,4043,Rizzolaga,,46.146548,11.264075,4043
593,4044,Campolongo,,46.149595,11.269497,4044
594,4045BS,Piazze. Bivio,,46.155325,11.277562,4045
595,4045,Piazze di Bedollo,,46.155637,11.288073,4045
596,4047,Castellani-Regnana Bivio,,46.159770,11.298662,4046
597,4046,Centrale di Bedollo,,46.160829,11.302257,4046
598,4050,Bedollo,,46.164986,11.301338,4050
599,4050BV,Bedollo. Bivio,,46.170025,11.312436,4050
600,4050VL,Bedollo. Villaggio,,46.172910,11.317048,4050
601,4060VV,Brusago. Via Verdi,,46.175773,11.321437,4060
602,4060,Brusago,,46.182124,11.325856,4060
603,4060CV,Brusago-Civ. 4,,46.186574,11.329590,4060
604,4060MG,Brusago. Maso Gabart,,46.194275,11.327783,4060
605,4065,Sette Fontane. Bivio,,46.199009,11.327735,1141
606,1141,Sveseri,,46.206442,11.323661,1141
607,4050RR,Bedollo,,46.164987,11.301522,4050
608,4045RR,Piazze di Bedollo,,46.155859,11.287329,4045
609,4044RR,Campolongo,,46.149607,11.269109,4044
610,4015RR,Pine'. Bivio,,46.081958,11.196437,1100
611,4010RR,Ponte Alto,,46.073949,11.150313,4010
612,0001PA,Trento. Port'aquila,,46.069729,11.128322,0001
613,0001VP,Trento. Via Perini,,46.060824,11.124149,0001
614,1100PI,Civezzano. Centro Europa,,46.083653,11.198160,1100
615,1100SE,Civezzano. Quadrivio,,46.090069,11.185165,1100
616,1100,Civezzano,,46.091870,11.183170,1100
617,4080,Cire'. Strada Statale,,46.077144,11.204337,4080
618,1001BS,Torchio,,46.090706,11.197405,1001
619,1101,Cogatti,,46.093810,11.197011,1001
620,1102,Seregnano,,46.094473,11.200440,1001
621,1103,Roverè,,46.090453,11.193243,1103
622,1104,Bampi. Bivio,,46.093748,11.190637,1103
623,1098,Barbaniga,,46.101737,11.186336,1098
624,1105,S. Agnese,,46.106352,11.183638,1105
625,1105DF,S.Agnese. Via Delle Scornie,,46.106520,11.186155,1105
626,1107,Mazzanigo,,46.103636,11.189191,1105
627,1108CV,Penedallo. Via Alle Praderie,,46.102448,11.192425,1105
628,1108,Penedallo,,46.101015,11.192549,1105
629,1106,Bosco di Civezzano,,46.111066,11.170987,1106
630,1106CA,Bosco. Loc. Canova,,46.113878,11.175537,1106
632,1001,Torchio. S.P. 71,,46.091408,11.198339,1001
633,1110,Valle Fornace,,46.111868,11.210359,1110
634,1111BV,Fornace. Bivio,,46.119113,11.216113,1111
636,1111,Fornace,,46.118059,11.208109,1111
637,1111CA,Fornace. Via Dei Pradolini 4,,46.120276,11.208418,1111
638,1117,S.Stefano,,46.128532,11.212036,1111
639,1111MD,Fornace. Maso Donati,,46.120440,11.216452,1111
640,1112CO,Lases,,46.143537,11.218870,1112
641,1113MO,Albiano. Via Roma Civ.35,,46.143815,11.198962,1112
642,1113,Albiano,,46.144616,11.193775,1112
643,1113VS,Albiano. Via S.Antonio,,46.146255,11.190461,1112
644,1113VD,Albiano Via S.Antonio 90,,46.148465,11.187402,1112
646,1112,Lases. Civ. 30,,46.144612,11.219167,1112
647,1112RM,Lases. Loc. Ronc Del Mela,,46.149543,11.221567,1112
648,1114VP,Lona. Via Provinciale,,46.156074,11.230499,1114
649,1114,Lona,,46.159058,11.233019,1114
650,1114PZ,Lona. Loc. Piazzole,,46.162898,11.240960,1114
651,1115,Sevignano,,46.170788,11.247115,1115
652,1116,Piazzo di Segonzano. Bivio,,46.180042,11.257961,1115
653,1118,Scancio di Segonzano,,46.187469,11.258369,1118
654,1118SB,Scancio di Segonzano-Snack Bar,,46.191891,11.259590,1118
655,1118MA,Scancio di Segonzano Mad.Aiuto,,46.196167,11.258609,1118
656,1120,Gaggio/Gresta Bivio,,46.207793,11.286814,1120
657,1137,Valcava. Bivio,,46.217869,11.305171,1137
658,1122BV,Sover. Bar Vittoria,,46.221405,11.314759,1122
660,1122MZ,Sover. Loc. Mezauno,,46.231132,11.318871,1122
661,1126,Piscine,,46.239915,11.324715,1126
662,1126GR,Piscine. Loc. Grava,,46.246753,11.332531,1126
664,1136,Pradel,,46.260329,11.355415,1136
665,1140,Loc. Ronco,,46.260434,11.384831,1140
666,1140ME,Loc. Melae,,46.263129,11.397785,1140
667,1087FL,Stramentizzo. Bivio,,46.266410,11.406553,1088
669,1136RR,Pradel,,46.262399,11.355414,1136
670,1118SR,Scancio di Segonzano-Snack Bar,,46.191608,11.258888,1118
671,1112ES,Lases. Distributore Esso,,46.150439,11.222691,1112
672,1112PE,Lases. Pesa,,46.143740,11.218679,1112
673,4100,Pergine V. V.Le Venezia,,46.061249,11.237030,4100
675,4100VB,Pergine-Via Baratieri,,46.063948,11.242774,4100
676,4100TA,Pergine V. Distr. Tamoil,,46.065171,11.247426,4100
677,4111,Zivignago,,46.067277,11.252917,4111
678,4111CO,Zivignago Cons.S.Orsola,,46.070154,11.257157,4111
679,4112ST,Canezza. Maso Sleifer,,46.076277,11.269734,4112
682,4112,Canezza,,46.076975,11.274488,4112
683,4112SO,Canezza. Difr. Al Sole,,46.080150,11.275942,4112
684,4112DR,Canezza. Maso Dràzeri,,46.084558,11.277665,4112
685,4121BV,Viarago. Bivio,,46.086387,11.277782,4122
686,4122AG,Mala. Loc.Agnoletti,,46.088687,11.279789,4122
687,4122,Mala,,46.090561,11.281509,4122
688,4123MA,S.Orsola. Loc.Mantovani,,46.095744,11.289212,4118
689,4118,Stefani,,46.098591,11.294201,4118
690,4123BE,S.Orsola. Loc.Bertoldi,,46.102574,11.298238,4123
691,4123,S. Orsola,,46.107694,11.301876,4123
693,4123DO,S.Orsola. Loc.Donadi,,46.111675,11.306192,4123
694,4124,Bagni Terme di S.Orsola,,46.113765,11.307884,4123
695,4123DM,S.Orsola. Loc. Doss Martin,,46.114671,11.307595,4123
696,4123BB,Marcheli-Bivio Borti E Cont,,46.117555,11.310062,4125
697,4125MM,Fontanari. Maso Marcheli,,46.119435,11.313233,4125
698,4125,Fontanari,,46.121170,11.316451,4125
699,4126BV,Palù Del F. Redebus,,46.130239,11.340910,4126
700,4126LS,Palu'del F. Loc. Sigismondi,,46.129806,11.344490,4126
701,4126HL,Palu' Del F. Htl Lagorai,,46.129513,11.348871,4126
702,4126,Palu' Del Fersina,,46.129732,11.352863,4126
703,4123RR,S. Orsola,,46.107832,11.302001,4123
708,1250HC,Moena. Htl Campagnola,,46.374005,11.665002,1250
709,1251,Alpe Lusia,,46.367806,11.686050,1251
710,1256,Fango,,46.368797,11.728391,1256
711,1256HN,Fango. Alb. Negritella,,46.374788,11.751959,1256
712,1253SC,P.So S.Pellegrino. S.Cost.,,46.378746,11.784385,1253
713,1253,Passo S.Pellegrino,,46.378141,11.789624,1253
714,1253CH,P.So S.Pellegrino. Chiesetta,,46.378324,11.793361,1253
715,1253CM,P.S.Pellegrino-Fun,,46.379111,11.802043,1253
722,0001CO,Trento. Off.Conotter,,46.075975,11.101119,0001
723,0001BE,Trento. Via Brescia,,46.070742,11.113498,0001
724,2610,Montevideo,,46.080370,11.098519,0001
725,2010,Cadine,,46.088572,11.064983,2010
726,2020,Terlago. Bivio,,46.091545,11.055123,2030
727,2030,Vigolo Baselga. Paese,,46.081449,11.044962,2030
728,2030PR,Vigolo Baselga. Pallonc.Rosso,,46.077626,11.032471,2030
731,2040BV,Vezzano. Bivio V.Cavedine,,46.071568,10.994702,2040
733,2090BA,Padergnone. Loc.Barbazan,,46.060257,10.990201,2090
734,2090,Padergnone,,46.062089,10.988850,2090
735,2090CE,Padergnone. Case Enel,,46.059535,10.984616,2090
736,2100,Due Laghi-Hotel Miralaghi,,46.058851,10.979179,2101
737,2110,Castel Toblino,,46.056347,10.965435,2110
739,2120MC,Sarche. Maso Caffaro,,46.045810,10.945322,2120
740,2120BM,Sarche. Bar Miravalle,,46.044952,10.943916,2120
741,2170,Comano Terme,,46.041193,10.881908,2180
742,2180,Ponte Arche Autostazione,,46.035587,10.873615,2180
743,2180BS,Ponte Arche-Bel Sit,,46.036219,10.864706,2180
744,2240DP,Ponte Ragoli. Sp34 Dir. Ragoli,,46.050483,10.785335,2240
745,2260,Saone,,46.042568,10.767067,2240
746,2268LI,Zuclo "Eurospin",,46.040576,10.749698,2270
748,2240,Ponte Ragoli. Ss237 Dir. Saone,,46.049763,10.785623,2240
749,2250PZ,Ragoli-Pez,,46.051078,10.781304,2240
750,2250,Ragoli,,46.050948,10.776267,2240
751,2251,Preore,,46.046153,10.758108,2240
752,2251SI,Preore-Loc.Signor,,46.044620,10.752411,2240
754,2268,Zuclo Bivio-Segheria Tonello,,46.038712,10.744444,2270
755,2271BV,Bolbeno-Bivio,,46.033969,10.735272,2270
756,2290BA,Tione. Bar Arnò,,46.034863,10.732479,2290
757,2290,Tione. Autostazione,,46.033131,10.726113,2290
758,2290CI,Tione-Via Circonvallaz.,,46.040221,10.727471,2290
759,2291,Verdesina Bivio,,46.056996,10.716267,2291
760,2340,Villa Rendena,,46.062248,10.712321,2340
761,2350,Iavrè,,46.068035,10.711736,2350
762,2350AR,Iavrè-Artigianato,,46.070886,10.714294,2350
763,2360,Darè,,46.075922,10.717566,2360
764,2370,Vigo Rendena,,46.078732,10.718955,2370
765,2370BV,Vigo Rendena-Biv.Val S.Val.,,46.082036,10.722141,2370
766,2380,Pelugo,,46.087077,10.722712,2380
767,2380SU,Pelugo-Artigianato,,46.087761,10.725074,2380
768,2390,Borzago,,46.098856,10.734735,2390
769,2400,Spiazzo Rendena,,46.103132,10.737690,2400
770,2410,Mortaso,,46.106645,10.739858,2400
771,2400CC,Spiazzo Rend.-Concess.Cozzio,,46.110256,10.747425,2400
772,2420BB,Strembo-Bivio Bocenago,,46.118282,10.752804,2420
773,2420,Strembo,,46.120329,10.751976,2420
774,2430,Caderzone,,46.128702,10.756513,2430
775,2430OF,Caderzone-Off. Alfa Romeo,,46.131331,10.764028,2430
776,2440,Giustino,,46.146116,10.768268,2440
777,2440HV,Giustino-Hotell Royal,,46.152048,10.766490,2440
778,2450,Pinzolo,,46.157163,10.765985,2450
779,2450FU,Pinzolo-Funivie,,46.163440,10.765456,2450
780,2460,Carisolo,,46.169319,10.764146,2460
781,2460PB,Carisolo-Pinemonte Basso,,46.187676,10.772542,2460
782,2470CF,S.Antonio di M.-Camping Faè,,46.185863,10.779171,2470
783,2470VN,S.Antonio di M.-Biv.V.Nambr.,,46.188184,10.777522,2470
784,2470VV,S.Antonio di M. Punto Info Pab,,46.190110,10.786137,2470
785,2470,S.Antonio di Mavignola,,46.191315,10.789131,2470
786,2470VF,S.Antonio di M.-Rio Fornas,,46.193845,10.795952,2470
787,2470RI,S.Antonio di M.-Rio V.Rastrel,,46.195038,10.795641,2470
788,2470PA,S.Antonio di M.-Palù,,46.197237,10.797152,2470
789,2470MF,S.Antonio di M.-Mumble Fratè,,46.200598,10.804009,2470
790,0957FO,M.Campiglio. Loc.Fontanella,,46.208855,10.820243,0957
791,0957HL,M.Campiglio. Htl Lorenzetti,,46.214136,10.822362,0957
792,0957HB,M.Campiglio. Htl Betulla,,46.220871,10.822454,0957
793,0957VF,M.Campiglio. Pietra Gr.,,46.224519,10.825377,0957
794,0957LG,M.Campiglio. Laghetto,,46.226018,10.827865,0957
795,0957DS,M.Campiglio. Des Alpes,,46.230343,10.827882,0957
796,0957FP,M.Campiglio. Pradalago,,46.234030,10.826075,0957
797,0957HD,M.Campiglio. Htl Dahu,,46.234408,10.823826,0957
798,0957,M.Campiglio. Brenta Alta,,46.231941,10.826142,0957
799,0957VN,M.Campiglio. Biv. V.Nambino,,46.235465,10.826424,0957
800,0957GR,Funivia Grostè,,46.236312,10.835359,0958
801,0958,Campo Carlo Magno,,46.242978,10.840028,0958
803,0958RR,Campo Carlo Magno,,46.243224,10.840249,0958
804,0957RR,Funivia Grostè,,46.236409,10.835460,0958
805,2101,S. Massenza,,46.065484,10.980459,2101
807,0957FR,M.Campiglio. Loc.Fontanella,,46.208587,10.819858,0957
808,2470MR,S.Antonio di M.-Mumble Fratè,,46.200491,10.803661,2470
809,2470RR,S.Antonio di Mavignola,,46.191345,10.788899,2470
811,2470VR,S.Antonio di M. Punto Info Pab,,46.190029,10.785590,2470
812,2470NR,S.Antonio di M.-Biv.V.Nambr.,,46.188255,10.778146,2470
813,2470CR,S.Antonio di M.-Camping Faè,,46.185658,10.778451,2470
814,2460RR,Carisolo,,46.169098,10.763888,2460
815,2450FR,Pinzolo-Funivie,,46.163722,10.765270,2450
816,2440HR,Giustino-Hotel Royal,,46.153492,10.766251,2440
817,2420BR,Strembo-Bivio Bocenago,,46.118148,10.752735,2420
818,2400CR,Spiazzo Rend.-Conc.Cozzio,,46.110693,10.747685,2400
819,2410RR,Mortaso,,46.106523,10.739582,2400
820,2400RR,Spiazzo Rendena,,46.102587,10.736819,2400
821,2390RR,Borzago,,46.098484,10.734349,2390
822,2380SR,Pelugo-Artigianato,,46.088019,10.725276,2380
823,2370BR,Vigo Rendena-Biv.Val S.Val.,,46.082367,10.722319,2370
824,2370RR,Vigo Rendena,,46.078900,10.719151,2370
825,2360RR,Darè,,46.075878,10.717462,2360
826,2350RR,Iavrè,,46.068840,10.711463,2350
827,2291RR,Verdesina Bivio,,46.056765,10.716636,2291
829,2290CR,Tione-Via Circonvallaz.,,46.040013,10.727516,2290
830,2021,Terlago,,46.097757,11.044737,2021
831,2022BS,Covelo. Bivio,,46.098388,11.022714,2023
832,2022VP,Covelo. Via Pooli,,46.096643,11.018071,2023
833,2022,Covelo,,46.098290,11.019002,2023
834,2025,Maso Ariol,,46.106105,11.026539,2023
835,2023BV,M. Terlago. Bivio,,46.108224,11.035937,2023
836,2023,Monte Terlago. Piazza,,46.109656,11.037891,2023
837,2023VL,M. Terlago. Vallene,,46.108947,11.042847,2023
838,2023AL,M. Terlago. Htl 2 Laghi,,46.112079,11.046116,2023
839,2010RR,Cadine,,46.088856,11.064510,2010
841,0001MP,Trento. Maso Pedrotti,,46.075560,11.098220,0001
842,0001SA,Trento. Loc. S.Antonio,,46.069885,11.100436,0001
843,2620MS,Sardagna-Maso Scala,,46.069871,11.097745,2620
844,2620,Sardagna,,46.064849,11.097287,2620
845,2620TO,Sardagna-Tornante Sp 85,,46.071419,11.086980,2620
846,2630,Candriai,,46.065418,11.083405,2630
847,2630BE,Candriai. Erica,,46.063071,11.082257,2630
848,2631,Centro Degasperi,,46.059630,11.077753,2631
849,2640BP,Vaneze-Bivio Prà Della Fava,,46.056969,11.076345,2640
850,2271BR,Bolbeno-Bivio,,46.034111,10.735531,2270
851,2268RR,Zuclo Bivio-Segh. Tonello,,46.038509,10.744192,2270
852,2270VR,Zuclo Morace Antichità R,,46.041910,10.753683,2240
853,2251SR,Preore-Loc. Signor,,46.044910,10.752912,2240
854,2250RR,Ragoli,,46.050929,10.776370,2240
855,2250PR,Ragoli-Pez,,46.050939,10.780059,2240
856,2270VE,Zuclo Morace Antichità,,46.041983,10.753582,2240
857,2260WR,Saone,,46.042536,10.766226,2240
858,2240PP,Ponte Ragoli. Ss237 Dir.Sarche,,46.050263,10.786767,2240
859,2180BR,Ponte Arche-Bel Sit,,46.036139,10.864626,2180
861,2170RR,Comano Terme,,46.041141,10.882863,2180
863,2090RR,Padergnone,,46.061989,10.989462,2090
865,2030RR,Vigolo Baselga. Ss45,,46.080844,11.043568,2030
868,2290BR,Tione. Bar Arnò,,46.034256,10.733255,2290
869,2120,Sarche. Cassa Rurale,,46.046415,10.952064,2120
870,2120RR,Sarche. Centro Comm.,,46.046439,10.952246,2120
871,2640,Vaneze,,46.051918,11.071935,2640
872,2640PA,Vaneze-Sp.85,,46.051411,11.069388,2640
873,2645,Vaneze-Norge,,46.049242,11.066657,2645
874,2640MO,Vaneze-Baita Montesel,,46.045839,11.065181,2645
875,2640TO,Vaneze-Ex Snack Bar,,46.044388,11.060835,2650
877,2660,Viote. Parcheggio,,46.021403,11.041170,2660
878,2650RR,Vason,,46.039194,11.058393,2650
879,2640MR,Vaneze-Baita Montesel,,46.046329,11.065046,2645
880,2630RR,Candriai,,46.065443,11.083975,2630
881,0001CR,Trento. Loc.Conotter,,46.076761,11.099985,0001
884,2270,Zuclo,,46.034159,10.747299,2270
885,2271,Bolbeno,,46.032566,10.737549,2270
887,2272,Coltura,,46.058270,10.793848,2240
889,2251BM,Preore Bivio Montagne,,46.046118,10.756554,2240
890,2281,Montagne. Cort,,46.050722,10.753625,2280
891,2282,Montagne. Larzana,,46.058444,10.751302,2280
892,2280,Montagne. Binio,,46.065608,10.755138,2280
894,2270RR,Zuclo,,46.034086,10.747093,2270
895,2450RR,Pinzolo,,46.157195,10.764398,2450
896,2041,Fraveggio. Bivio,,46.078617,10.993862,2040
897,2042,Lon,,46.084137,10.992651,2040
898,2043,Ciago,,46.089243,11.004839,2040
899,2044,Margone. Bivio,,46.067428,10.973740,2045
900,2045,Ranzo,,46.064110,10.942538,2045
901,2046,Margone,,46.068219,10.963861,2045
903,2043SP,Ciago. Sp. 18 Civ.1,,46.089161,11.008005,2040
905,2044RR,Margone. Bivio,,46.067940,10.973810,2045
906,2042FR,Lon. Rist. Fior di Roccia,,46.084858,10.991603,2040
909,4400,Borgo Valsugana-C.Intermodale,,46.052462,11.463491,4400
910,4400OS,Borgo V. Ospedale,,46.056442,11.464237,4400
911,4400VA,Borgo V. Valli,,46.055485,11.469818,4400
912,4460,Castelnuovo-Malerba,,46.053808,11.481141,4450
913,4450,Castelnuovo,,46.052199,11.494275,4450
914,4449,Strigno. Staz. Fs,,46.051476,11.514732,4449
915,4451IN,Agnedo-Incrocio,,46.051002,11.525005,4451
916,4451,Agnedo,,46.052518,11.528678,4451
917,4451VO,Agnedo-Via Per Ospedaletto,,46.048289,11.531298,4451
918,4451VS,Agnedo-Via Per Ospedaletto 8,,46.046838,11.542283,4451
919,4452,Ospedaletto,,46.044853,11.550779,4452
920,4452FS,Ospedaletto. Staz. Fs,,46.041592,11.548685,4452
921,4452NP,Ospedaletto Loc. Barricata,,46.036357,11.561027,4452
922,4452VP,Ospedaletto-Via Pradenella,,46.033872,11.573065,4452
923,4453,Tollo,,46.028366,11.587733,4453
924,4454,Grigno,,46.015039,11.635232,4454
925,4454SE,Grigno-Segheria,,46.015221,11.636693,4454
926,4456,Palù di Grigno,,46.007303,11.654860,4456
927,4455,Serafini,,46.004041,11.660400,4455
928,4498,Belvederi di Grigno,,46.001083,11.665282,4498
929,4457VM,Tezze. Via M.Vecchio 16,,45.993793,11.670268,4457
930,4457,Tezze,,45.991217,11.671729,4457
931,4458,Martincelli,,45.977984,11.680800,4458
932,4490,Primolano. A. Giardino,,45.965205,11.707056,4490
933,4452RR,Ospedaletto,,46.044689,11.550960,4452
934,4112BV,Canezza. Bivio,,46.076786,11.275859,4112
935,4112MO,Canezza. Loc. Molini,,46.076819,11.282740,4112
936,4112PI,Canezza. Loc. Pinterhof,,46.078875,11.283440,4112
937,4140PI,Frassilongo. Maso Pizzi,,46.084011,11.290371,4113
938,4140MO,Frassilongo. Maso Molinari,,46.084563,11.291105,4113
939,4300,Levico Terme Autostazione,,46.010088,11.298988,4300
940,4300PM,Levico T. Via Avancini,,46.008714,11.308624,4300
941,4310,Barco,,46.004585,11.335615,4310
942,4300PR,Levico T. Via Rovigo,,46.009119,11.308641,4300
943,4047DC,Regnana Biv.-Dopo A.Costalta,,46.159985,11.300167,4046
944,4048VD,Regnana. Via Redebus 9,,46.156252,11.308979,4048
945,4048,Regnana,,46.154105,11.309898,4048
946,4400BO,Borgo V. Sp.40,,46.051475,11.456462,4400
947,4410TC,Olle. Trattoria Alla Croce,,46.041592,11.460244,4410
948,4410BO,Olle. Via Del Boaletto,,46.040763,11.465104,4410
949,4410,Olle,,46.040810,11.464159,4410
950,4100VR,Pergine V.-Via Rosmini 19,,46.060946,11.232464,4100
951,4138,Costasavina,,46.058111,11.213978,4137
952,4139,Fornaci di Roncogno,,46.064070,11.224108,4137
953,4137,Roncogno,,46.069355,11.207316,4137
961,4090,Ponte Fersina,,46.069817,11.223408,4100
962,4100VD,Pergine V. Viale Dante,,46.065909,11.228113,4100
963,4280,Masetti. Strada Provinciale,,46.052648,11.249263,4280
965,4300MI,Levico T. Alb.Miralago,,46.014469,11.294589,4300
966,4300CI,Levico Terme Cimitero,,46.008857,11.316259,4300
967,4300BB,Levico T. Sp.228,,46.016488,11.330911,4300
968,4350,Campiello di Levico,,46.019578,11.356675,4350
969,4360,Novaledo,,46.022214,11.366070,4360
970,4360VR,Novaledo-Via Roati,,46.027413,11.374062,4360
971,4361,Novaledo-Loc.Campregher,,46.029342,11.382788,4361
972,4370AN,Marter-Loc.Angeli,,46.030566,11.388358,4370
973,4370,Marter. Autoespresso,,46.034105,11.394313,4370
974,4380VC,Roncegno. Via Ciocca,,46.044669,11.406874,4380
975,4380,Roncegno Terme,,46.049672,11.411170,4380
976,4380CS,Roncegno. Centro Polisportivo,,46.049009,11.421463,4380
977,4400FS,Borgo V. Staz. Fs,,46.051443,11.454410,4400
978,4500,Scurelle,,46.065060,11.506670,4500
979,4500VA,Scurelle-Via 15 Agosto,,46.062962,11.514488,4500
980,4467,Villa,,46.057747,11.519770,4449
981,4522,Strigno-Bivio Ivano Fracena,,46.061560,11.523759,4511
983,4530,Tomaselli,,46.068814,11.528254,4530
984,4530BL,Tomaselli-Bivio Latini,,46.071156,11.536714,4530
985,4540VD,Bieno-Via Bettega,,46.075322,11.540811,4540
986,4540BC,Bieno-Via Lusumina,,46.084132,11.550564,4540
987,4540,Bieno,,46.080270,11.553830,4540
988,4540VR,Bieno-Via Roma,,46.081289,11.558986,4540
989,4541,Pradellano,,46.079568,11.577668,4541
990,4541LA,Pradellano-Al Lago,,46.076088,11.588451,4541
991,4550PF,Pieve Tesino-Passo Forcella,,46.070958,11.592243,4550
992,4550VF,Pieve Tesino. Case Itea,,46.068563,11.605517,4550
993,4550BV,Cinte Tesino Bivio,,46.066535,11.607620,4550
994,4560BA,Cinte Tesino-Stab.Bailo,,46.063237,11.609766,4550
996,4560,Cinte Tesino,,46.057647,11.613701,4550
998,4550,Pieve Tesino,,46.068075,11.609930,4550
999,4570PB,Castello T.-Loc. Molini,,46.070759,11.622031,4570
1000,4570AG,Castello T. Distributore,,46.068608,11.625938,4570
1001,4570BC,Castello T.-Via Baili,,46.064293,11.628875,4570
1002,4570,Castello Tesino,,46.064875,11.633289,4570
1003,4100BS,Pergine V. Bivio Susà,,46.057686,11.237137,4100
1004,4201,Pergine. Via Al Lago,,46.054930,11.235854,4100
1005,4200,S.Cristoforo Al Lago,,46.038779,11.233499,4200
1006,4250,Valcanover,,46.026717,11.229250,4250
1007,4260HD,Valcanover. Happy Days,,46.016395,11.234230,4250
1008,4260BF,Calceranica. Via Donegani,,46.006595,11.241043,4260
1009,4260,Calceranica Al Lago,,46.003914,11.243290,4260
1013,4270SP,Caldonazzo. Sp. Civ.85/B,,45.998137,11.279591,4270
1014,4300RB,Levico T. Rist. Brenta,,46.006388,11.291846,4300
1015,4300RR,Levico T. Rist.Brenta,,46.006545,11.291889,4300
1018,4260RR,Calceranica Al Lago,,46.006129,11.241411,4260
1019,4250RR,Valcanover,,46.027391,11.229316,4250
1020,4200RR,S.Cristoforo Al Lago,,46.038969,11.233974,4200
1021,4100FE,Pergine V. Via Al Lago,,46.053383,11.235378,4100
1022,4200BD,S.Cristoforo. Bivio Darsena,,46.039890,11.239806,4200
1023,4210TE,Ischia. Alle Terrazze,,46.012668,11.261716,4200
1024,4292,Brenta Bivio,,46.004685,11.274358,4292
1025,4292RR,Brenta Bivio,,46.004647,11.274912,4292
1026,4210TR,Ischia. Alle Terrazze,,46.014089,11.260418,4200
1028,4100RR,Pergine V. P.Gavazzi,,46.061539,11.237582,4100
1029,4113,Roveda. Bivio,,46.086444,11.293806,4113
1030,4140,Frassilongo,,46.089504,11.297428,4140
1031,4140NO,Frassilongo. Maso Doss Hecchi,,46.092489,11.302717,4140
1032,4140PU,Frassilongo. Maso Puech,,46.094065,11.304203,4140
1033,4141GA,Fierozzo. Loc. Gaigheri,,46.096615,11.311679,4141
1034,4141,S.Francesco,,46.100364,11.310537,4141
1035,4142,S. Felice Fierozzo,,46.111160,11.318511,4142
1037,4100RG,Pergine V. Via Regensburger,,46.064433,11.242024,4100
1038,4100RS,Pergine V. Regensb/Bellini,,46.067888,11.239686,4100
1039,4119,Casalino. Stadio Ghiaccio,,46.072184,11.235638,4100
1040,4132,Casalino,,46.073687,11.230353,4132
1041,4133,Vigalzano,,46.076932,11.228469,4133
1042,4133VG,Vigalzano. Via Del Sgualdi,,46.079790,11.226829,4133
1043,4134VP,Canzolino. Via Pianezze,,46.081872,11.222565,4134
1044,4134SC,Canzolino. Scuole,,46.083822,11.219082,4134
1046,4022AM,Madrano. Albergo,,46.085561,11.214960,4022
1048,0961,S.Martino di Castrozza,,46.262155,11.804280,0961
1049,0961CF,S.Martino di C. Htl Cristallo,,46.258682,11.802416,0961
1050,5180,Impianti Tognola,,46.254707,11.800059,5180
1051,5170,Valmesta,,46.226903,11.808954,5170
1052,5160VS,Siror. Nolesca,,46.189812,11.825374,5140
1053,5160,Siror,,46.187091,11.830574,5140
1054,5140TR,Tressane,,46.179404,11.832395,5140
1055,5140PM,Fiera di P. Via Roma 2,,46.177619,11.831448,5140
1056,5140,Fiera di Primiero,,46.174314,11.828596,5140
1057,5140HP,Transacqua. Viale Piave 129,,46.171332,11.824349,5140
1058,5135,Sorive,,46.160057,11.819873,5135
1059,5130SA,Mezzano. Salgetti,,46.156245,11.814588,5130
1060,5130,Mezzano,,46.154594,11.805969,5130
1061,5110SH,Imer. Via Nazionale 1,,46.152030,11.800775,5110
1062,5110,Imer,,46.150665,11.794425,5110
1063,5111,Masi di Imer,,46.145287,11.785762,5111
1064,5108,S.Silvestro,,46.131493,11.768948,5111
1065,5100,Pontet,,46.106843,11.774053,5100
1066,5090,Port,,46.092400,11.761685,5090
1067,5090PV,Val Rosna,,46.083783,11.764424,5090
1069,5070,Ponte Oltra,,46.060537,11.763200,5070
1070,5060,Fontane di Lamon,,46.036419,11.761568,5060
1071,5050,Ponte Serra,,46.029635,11.762561,5050
1072,5040PS,Fonzaso. Pedesalto,,46.021119,11.781456,5040
1073,5040,Fonzaso,,46.016527,11.802215,5040
1074,5030,Arten,,46.008261,11.831183,5030
1075,5020,S.Lucia,,46.003162,11.840778,5020
1076,5010GZ,Feltre. Gel. La Zuecca,,46.019147,11.893482,5010
1078,5010OS,Feltre. Ospedale,,46.021857,11.908003,5010
1079,5010,Feltre. Staz. Fs,,46.012752,11.910845,5010
1080,5010RR,Feltre-Staz. Fs,,46.012495,11.910299,5010
1081,5020RR,S.Lucia,,46.003278,11.840809,5020
1082,5030RR,Arten,,46.008711,11.831529,5030
1083,5070RR,Ponte Oltra,,46.060444,11.762550,5070
1085,5111RR,Masi di Imer,,46.145370,11.786076,5111
1087,5110RR,Imer,,46.150564,11.794510,5110
1088,5130RR,Mezzano,,46.154453,11.806208,5130
1089,5130SR,Mezzano. Salgetti,,46.156401,11.815192,5130
1090,5160RR,Siror,,46.186858,11.830370,5140
1091,5180RR,Impianti Tognola,,46.254567,11.800636,5180
1092,0961CR,S.Martino di C. Htl Cristallo,,46.258587,11.802593,0961
1093,5117,Canal S. Bovo,,46.154986,11.733008,5117
1094,5117SP,Canal S.Bovo. Somprà,,46.159544,11.727574,5117
1095,5122,Pianazzi Bivio,,46.162107,11.722753,5117
1096,5118,Ronco Fosse,,46.153343,11.719639,5118
1097,5118CO,Ronco. Bivio Pugnai,,46.149556,11.719945,5118
1098,5119PI,Ronco. Bivio Gasperoi,,46.141881,11.717184,5119
1099,5119,Ronco Chiesa,,46.141564,11.714631,5119
1103,4300FS,Levico Terme. Staz. Fs,,46.005880,11.305006,4300
1107,4130,Susa',,46.051112,11.223536,4130
1108,0001NO,Trento. 3 Nov.Centros.Chiara,,46.062416,11.123710,0001
1109,0001VV,Trento. Viale Verona,,46.056379,11.128442,0001
1110,0001DI,Trento. Verona/S.Bart.,,46.050680,11.130485,0001
1111,0001QU,Trento.Viale Verona Big Center,,46.045792,11.130970,0001
1112,0001MN,Trento. Man,,46.036737,11.130335,0001
1113,3010RC,Mattarello. Loc.Ronchi,,46.017609,11.132581,3010
1114,3010,Mattarello,,46.005283,11.126499,3010
1115,3020,Acquaviva,,45.991818,11.123145,3020
1116,3020SF,Acquaviva. Pizzeria,,45.980441,11.116337,3020
1117,3030NF,Besenello.Nord,,45.945968,11.106161,3030
1118,3030,Besenello,,45.942137,11.109387,3030
1119,3030SF,Besenello. Sud,,45.937109,11.110676,3030
1120,3040,Calliano,,45.934198,11.095731,3040
1121,3040MA,Calliano. Grafiche Manfrini,,45.928836,11.093170,3040
1122,3055,Castelpietra,,45.922315,11.091930,3055
1123,3070,Volano,,45.917920,11.063778,3070
1124,3080,S.Ilario,,45.908274,11.040550,3100
1125,3100TN,Rovereto V.Le Trento,,45.900157,11.041996,3100
1126,3100,Rovereto. Via Manzoni,,45.892473,11.038424,3100
1127,3100FS,Rovereto. Staz. Fs,,45.889596,11.033725,3100
1128,3100HC,Rovereto Difr.Rist.Cristina,,45.881366,11.031858,3100
1129,3290,Lizzanella,,45.875635,11.031725,3100
1130,3290BV,Lizzanella. Alla Staffa,,45.872774,11.024337,3100
1131,3300SG,Centro Commerciale Millenium,,45.868786,11.014431,3100
1132,3542,Mori. Staz. Fs,,45.861909,11.000617,3542
1133,3312,Ravazzone di Mori,,45.860092,10.991289,3312
1134,3320,Molina di Mori. Via Roma129,,45.856819,10.989042,3320
1135,3310,Mori. Bar Centrale,,45.851605,10.978779,3310
1136,3310SB,Mori. Bivio Sud,,45.853582,10.967511,3310
1137,3310FA,Mori. Difr.Discoteca Fanum,,45.855024,10.946424,3460
1138,3460,Loppio,,45.855726,10.929793,3460
1139,3465,Passo S.Giovanni,,45.873944,10.906340,3465
1140,3470,Nago,,45.878475,10.890668,3470
1141,3480,Torbole,,45.871052,10.875511,3480
1142,3482,Linfano. Bivio,,45.875619,10.871472,3480
1143,0960HB,Riva Del G. Htl Brione,,45.879954,10.856248,0960
1144,0960HD,Riva Del G. Htl Du Lac,,45.883036,10.852640,0960
1145,0960CD,Riva Del G. Via D.Chiesa,,45.888705,10.846074,0960
1146,0960,Riva Del G.Autostazione,,45.892288,10.844891,0960
1147,0960DR,Riva Del G. Viale Trento,,45.895382,10.850060,0960
1149,3500,Riva Del G. S.Nazzaro,,45.899783,10.855659,0960
1150,3510,S.Tomaso-Direz. Arco,,45.902286,10.860010,3510
1151,3520AU,Arco. S.Caterina Eurospar,,45.904792,10.864219,3520
1152,3520BG,Arco. Bivio Sp 36 Grazie,,45.906485,10.866326,3520
1153,3533,Arco. Via S.Caterina,,45.912253,10.875210,3520
1154,3520,Arco. Autostazione,,45.916112,10.883000,3520
1155,3520LR,Arco. Piazza Italia,,45.919566,10.891331,3520
1156,3529,Caneve,,45.916734,10.892202,3520
1157,3531,Bolognano. Bivio,,45.910902,10.900308,3520
1158,3530,Bolognano,,45.912063,10.901985,3520
1159,3530VA,Bolognano. Via Asilo,,45.914057,10.902195,3520
1160,3540,Massone. Case Itea,,45.921813,10.899107,3520
1161,3540SE,Massone,,45.924014,10.898305,3520
1162,3540SM,S.Martino di Arco,,45.924459,10.894773,3520
1163,3520SV,Arco. Svizzera,,45.921460,10.891615,3520
1165,3520AR,Arco. S.Caterina Eurospar,,45.904662,10.863889,3520
1166,3510RR,S.Tomaso-Direz. Riva,,45.902907,10.861113,3510
1167,3500RR,Riva Del G. S.Nazzaro,,45.899421,10.855183,0960
1169,0960DG,Riva Del G. Viale Trento,,45.895389,10.850171,0960
1170,0960RV,Riva Del G. Viale Martiri,,45.888256,10.844340,0960
1171,3470RR,Nago,,45.878302,10.890541,3470
1172,3460RR,Loppio,,45.855490,10.930106,3460
1173,3310RR,Mori. Bar Centrale,,45.851608,10.978987,3310
1174,3320RR,Molina di Mori,,45.855097,10.985452,3320
1175,3312RR,Ravazzone di Mori,,45.858717,10.990648,3312
1176,3542RR,Mori. Staz. Fs,,45.861821,11.000485,3542
1177,3290BR,Lizzanella. Bar Verona,,45.872694,11.024271,3100
1178,3290RR,Lizzanella,,45.876161,11.032029,3100
1179,3100RC,Rovereto. Rist.Cristina,,45.881390,11.032065,3100
1180,3100FR,Rovereto. Staz. Fs,,45.890243,11.034028,3100
1181,3100TR,Rovereto. V.Le Trento,,45.900353,11.042121,3100
1182,3080RR,S. Ilario,,45.908367,11.040782,3100
1183,3070RR,Volano,,45.917750,11.063575,3070
1184,3040RR,Calliano,,45.934013,11.096000,3040
1185,3030RR,Besenello,,45.942592,11.108639,3030
1186,3030NR,Besenello-Ferm. Nord,,45.946016,11.106021,3030
1187,3010RR,Mattarello,,46.005251,11.126634,3010
1188,0001MR,Trento. Man,,46.037836,11.130483,0001
1189,0001PC,Trento. Ponte Cavaleggeri,,46.059353,11.126294,0001
1190,0001RO,Trento. Via Rosmini,,46.068218,11.118792,0001
1191,5141,Tonadico. Lisiera,,46.181186,11.841116,5140
1192,5141CP,Tonadico. Centr.Castelpietra,,46.184633,11.845440,5140
1193,5154,Bivio Val Canali,,46.189616,11.861085,5154
1194,5142,Baita Del Vecio,,46.185476,11.873967,5142
1195,5143,Passo Cereda,,46.192989,11.905216,5143
1196,5144,Mis,,46.207140,11.927146,5144
1197,5144BS,Mis di Mezzo,,46.205716,11.928989,5144
1198,5144CH,Mis di Sotto,,46.203519,11.930091,5144
1199,5145,Sagron,,46.195005,11.943350,5145
1200,1221ZO,Bellamonte. Albergo Zaluna,,46.314592,11.647132,1221
1201,1221,Bellamonte,,46.312914,11.662979,1221
1202,1221HT,Bellamonte. Htl Torretta,,46.311061,11.674493,1221
1203,1222,Lago Forte Buso,,46.306912,11.701279,1222
1204,1223RR,Paneveggio,,46.306448,11.738906,1223
1205,1223CF,Paneveggio Centro Forestale,,46.309544,11.748089,1223
1206,1224MJ,Bivio Malga Juribello,,46.300122,11.763510,1224
1207,1224MA,Malga Rolle,,46.295819,11.776537,1224
1208,1224,Passo Rolle,,46.296308,11.787131,1224
1209,1224SR,Passo Rolle. Segg. Segantini,,46.297696,11.788903,1224
1210,1224MF,Passo Rolle. Malga Fosse,,46.289458,11.798572,1224
1211,0961SM,S.Martino di C. Htl S.Martino,,46.266382,11.802406,0961
1212,0961CV,S.Martino di C.-Im.Col Verde,,46.264920,11.804210,0961
1213,0961BV,S.Martino di C. Htl Belvedere,,46.264317,11.801826,0961
1218,1223,Paneveggio,,46.306572,11.738977,1223
1219,1224SS,Passo Rolle. Segg.Segantini,,46.297926,11.789057,1224
1221,5109,Lausen,,46.150391,11.734723,5117
1224,5120BC,Caoria. Ex Bar Cauriol,,46.194860,11.680888,5120
1225,5120PV,Caoria. Ponte Valsorda,,46.197166,11.678888,5120
1226,5120,Caoria,,46.198014,11.675727,5120
1227,5109RR,Lausen,,46.149482,11.734704,5117
1229,5115,Bivio Prade,,46.151489,11.741636,5115
1230,5128,Berni,,46.156639,11.745887,5128
1231,5113,Prade,,46.157317,11.740532,5113
1232,5114,Cicona,,46.162909,11.744178,5114
1233,5116,Zortea,,46.162720,11.750153,5116
1234,5116BM,Zortea. Loc. Mureri,,46.164875,11.757450,5116
1235,5127,Barbine,,46.157840,11.754326,5127
1236,5112FM,Passo Gobbera. F.Mazuca,,46.150303,11.751114,5112
1237,5112,Passo Gobbera,,46.148013,11.756866,5112
1238,5112RR,Passo Gobbera,,46.147634,11.757650,5112
1239,5117RR,Canal S. Bovo,,46.154706,11.733033,5117
1240,5120PR,Caoria. Ponte Valsorda,,46.197184,11.678526,5120
1242,1070HC,Cavalese. Htl Coronelle,,46.294817,11.454257,1070
1243,1160GI,Daiano. Parco Giochi,,46.300108,11.450117,1160
1244,1160,Daiano,,46.300880,11.447866,1160
1245,1161CA,Varena. Pizz. La Cantinetta,,46.302823,11.454017,1160
1246,1161CT,Varena. Alb. Alpino,,46.303569,11.456154,1160
1247,1161,Varena,,46.305516,11.458112,1160
1248,0001SR,Trento. Via Valsugana,,46.069121,11.136316,0001
1249,4080EX,Cirè,,46.077707,11.205955,4080
1250,4114MP,Roveda. Maso Puech Pote,,46.074385,11.287903,4114
1251,4114MS,Roveda. Maso Sroveri,,46.069345,11.292389,4114
1252,4114,Roveda,,46.068024,11.300338,4114
1253,4114TM,Roveda. Maso Tolleri,,46.069282,11.299098,4114
1254,4114MM,Roveda. Maso Martinotti,,46.071816,11.304074,4114
1255,4114MC,Roveda. Maso Kairo,,46.071545,11.298765,4114
1256,4115MF,Kamauz. Maso Frunt,,46.073004,11.301541,4115
1257,4115,Kamauz,,46.074720,11.302160,4115
1258,4112SR,Canezza Rist. Al Sole,,46.080111,11.275677,4112
1259,4400IT,Borgo Vals. Case Itea,,46.058764,11.469258,4400
1260,4461,Telve,,46.070438,11.477960,4461
1261,4461BP,Telve-Panorama,,46.070381,11.483094,4461
1262,4461BU,Telve-Via S.Giustina,,46.072705,11.484437,4461
1264,4461SA,Telve-Salti,,46.073964,11.480754,4461
1265,4462,Ponte S.Giovanni,,46.075055,11.474235,4462
1266,4463,Telve di Sopra,,46.072008,11.472209,4463
1267,4465,Campestrini,,46.077690,11.456855,4465
1268,4464BV,Torcegno. Segheria,,46.074772,11.451061,4464
1269,4464,Torcegno,,46.073040,11.450415,4464
1270,4440,Ronchi Valsugana,,46.072601,11.438550,4440
1271,4440MA,Ronchi-Loc. Marchi,,46.066814,11.432580,4440
1272,4430ST,Stauda,,46.063776,11.429668,4430
1273,4430,Montebello,,46.061210,11.425909,4430
1274,4422,Maso Roneri,,46.059243,11.420818,4420
1275,4420,Rincheri,,46.056604,11.416637,4420
1277,4550BR,Cinte Tesino Bivio,,46.067455,11.607534,4550
1457,1167,Ora-Auer,,46.348174,11.297318,1167
1458,2124,Maso Del Gobbo,,46.033816,10.947741,2124
1459,2125,Pietramurata,,46.017091,10.942040,2125
1460,2132,Isoletta,,46.009174,10.935765,2132
1461,2153MP,Marocche-Pescicoltura,,46.002235,10.926658,2153
1462,2153,Marocche,,45.998564,10.925293,2153
1463,2154,Gaggiolo,,45.993529,10.926559,2154
1464,2129,Centrale Fies,,45.986449,10.926880,2129
1465,2127AG,Dro. Al Lago,,45.982596,10.925057,2129
1466,2127IT,Dro Itea,,45.962453,10.915976,2127
1467,2127,Dro,,45.961474,10.910724,2127
1468,2127FA,Dro. Carabinieri,,45.958516,10.906521,2127
1469,2128,Ceniga,,45.951387,10.900849,2128
1470,2128BS,Ceniga. Bivio Sud,,45.946609,10.902952,2128
1471,3520MO,Arco Moletta,,45.931024,10.896184,3520
1472,4380CH,Roncegno. Chiesa,,46.049713,11.406680,4380
1474,2130,S.Martino di Arco,,45.924767,10.894147,3520
1475,1160PR,Daiano. Via Arca I,,46.300321,11.445205,1160
1476,1160SE,Daiano. Via Arca Civ.20,,46.298114,11.444155,1160
1477,1150OL,Carano,,46.292418,11.437232,1070
1478,1151AZ,Masi. Az. Agricola,,46.281917,11.496310,1070
1479,1181,Lago di Tesero,,46.281742,11.515787,1190
1480,1181MO,Lago. Mobilif. De Pal,,46.283987,11.521967,1190
1482,2131,Daino,,46.023308,10.943757,2125
1483,4025MC,Baselga di Pinè Monum.,,46.130952,11.246443,4025
1484,4040LA,Miola,,46.126783,11.246519,4025
1485,4040,Miola. St. Ghiaccio,,46.125305,11.252779,4025
1486,4041BA,Faida-Rauta,,46.112841,11.253839,4041
1487,4041,Faida,,46.109690,11.251612,4041
1492,4134,Canzolino,,46.083701,11.221502,4134
1493,4134HM,Canzolino. Htl Miralago,,46.082966,11.230838,4134
1494,4134BB,Canzolino. Bivio Buss,,46.084556,11.230762,4134
1495,4020,Riposo,,46.084494,11.236934,4020
1496,4042,Montagnaga,,46.098614,11.236067,4042
1497,4039,Valt,,46.106818,11.236564,4039
1498,4026HS,Ferrari Htl Scoiattolo,,46.111814,11.234194,4026
1499,4026,Ferrari,,46.121679,11.239941,4026
1501,4040BV,Miola-Bivio Ferrari/Miola,,46.124924,11.243141,4025
1502,1107RR,Mazzanigo,,46.103798,11.188916,1105
1503,1105RR,S.Agnese,,46.106122,11.183914,1105
1507,2181,Campo Lomaso,,46.024031,10.865605,2181
1508,2181SE,Campo Lomaso Ii,,46.021897,10.866742,2181
1509,2182,Vigo Lomaso,,46.013209,10.869077,2182
1510,2183,Dasindo,,46.011734,10.860499,2183
1511,2184,Stumiaga,,46.007006,10.849004,2184
1512,2185CA,Fiavè-Caseificio,,46.001943,10.846002,2185
1513,2185,Fiave',,46.004318,10.842155,2185
1514,2185BA,Fiavè-Bar Aurora,,46.001174,10.840935,2185
1515,2187,Torbiera,,45.992445,10.838006,2187
1516,2185PI,Fiavè Pineta,,45.988123,10.833075,2187
1517,2188,Ballino,,45.965502,10.811511,2188
1518,2189,Lago di Tenno,,45.935390,10.811878,2189
1519,2210,Ville Del Monte,,45.930258,10.822410,2210
1520,2210BA,Ville Del Monte I,,45.927398,10.825672,2210
1521,2191,Tenno,,45.921138,10.831296,2191
1523,2191AP,Cologna. Alb.Panorama,,45.915367,10.847092,2192
1525,2192BE,Cologna. Belvedere,,45.913960,10.841414,2192
1527,2136CS,Varone Cascata,,45.911896,10.837379,2136
1528,0935BT,Gardolo. Zona Ind.Le,,46.105317,11.100604,0935
1530,0001OS,Trento. Ospedale S.Chiara,,46.058154,11.132916,0001
1531,0001OR,Trento. Osp. S.Chiara,,46.058155,11.131195,0001
1532,0001SC,Trento. Ospedale S.Camillo,,46.065483,11.131823,0001
1534,0001PV,Trento. Piazza Venezia,,46.067676,11.126898,0001
1535,0001BA,Trento. Via Barbacovi,,46.064482,11.129754,0001
1536,0001MB,Trento. Via M.Baldo,,46.057537,11.117434,0001
1538,2136,Varone. Alberello,,45.907213,10.840332,2136
1539,2136BA,Varone. Via Ballino 14,,45.904368,10.842055,2136
1540,2136SA,Varone. Sc.Alberghiera,,45.901914,10.844089,2136
1541,2228,Albola,,45.897665,10.844128,0960
1542,0960VT,Riva D/Garda V.Le Dei Tigli 21,,45.892365,10.842947,0960
1544,2136SR,Varone. Sc.Alberghiera,,45.901569,10.844309,2136
1545,2136CR,Varone. Cascata,,45.911836,10.837196,2136
1546,2191AR,Cologna. Alb.Panorama,,45.915415,10.847129,2192
1547,2188RR,Ballino,,45.965775,10.811607,2188
1548,2187RR,Torbiera,,45.992713,10.838521,2187
1549,2185BR,Fiavè-Bar Aurora,,46.001312,10.841012,2185
1550,2185RR,Fiave',,46.004254,10.842192,2185
1551,2185CR,Fiavè-Caseificio,,46.002205,10.845754,2185
1552,2184RR,Stumiaga,,46.007379,10.849191,2184
1553,2183RR,Dasindo,,46.011618,10.860456,2183
1554,2182RR,Vigo Lomaso,,46.013241,10.869088,2182
1555,2181SR,Campo Lomaso Ii,,46.021556,10.866820,2181
1556,2181RR,Campo Lomaso,,46.023679,10.865721,2181
1558,2195,Cares,,46.032890,10.863774,2195
1559,2196,Comighello,,46.030953,10.851465,2196
1560,2225,Sesto Bivio,,46.031422,10.846945,2225
1562,2197,Villa di Bleggio,,46.029306,10.841951,2197
1563,2198,Santa Croce,,46.024470,10.838767,2198
1564,2199,Madice,,46.023864,10.832001,2199
1565,2241,Marcè Bivio,,46.019260,10.823812,2241
1566,2200,Cavrasto,,46.017078,10.819853,2185
1567,2202,Balbido,,46.014860,10.811036,2202
1568,2201,Rango,,46.018186,10.811830,2201
1569,2207,Cavaione,,46.022569,10.819802,2207
1570,2204,Marazzone,,46.026892,10.820733,2208
1571,2203,Larido,,46.028690,10.823712,2208
1572,2208,Bivedo,,46.028737,10.826648,2208
1573,2290HM,Tione. Hotel Milano,,46.029135,10.723740,2290
1574,2292,Polin,,46.026823,10.720089,2292
1575,2293UN,Breguzzo-Loc. Petò,,46.018712,10.711182,2293
1576,2293DU,Breguzzo-Corè,,46.014462,10.707679,2293
1577,2293,Breguzzo,,46.009293,10.699434,2293
1578,2293HC,Breguzzo-Hotel Carlone,,46.006213,10.697764,2293
1579,2294,Bondo,,46.000241,10.692875,2294
1580,2295,Pra' di Bondo,,45.996291,10.690679,2295
1581,2295FA,Prà di Bondo-Falegnameria,,45.990777,10.685580,2295
1582,2296,Roncone,,45.983561,10.670694,2296
1583,2297,Fontanedo,,45.979181,10.666826,2297
1584,2298,Lardaro,,45.969380,10.660892,2298
1585,2301,Forti di Lardaro,,45.962752,10.658038,2305
1586,2304,Strada,,45.944283,10.642771,2305
1587,2305,Pieve di Bono,,45.938969,10.638638,2305
1588,2302,Agrone,,45.954528,10.650078,2305
1589,2305BO,Pieve di Bono. Tratt.Borel,,45.935768,10.639059,2305
1592,2309,Cologna di P.Bono,,45.931354,10.637449,2309
1593,2310CE,Cimego. Centrale Enel,,45.924617,10.632708,2310
1594,2326,Ponte Cimego,,45.915355,10.621384,2310
1595,2310,Cimego,,45.911925,10.614400,2310
1596,2310QA,Cimego Quartinago,,45.910620,10.611835,2310
1597,2310BP,Cimego-Bar Porte,,45.904467,10.608408,2310
1598,2311AC,Condino. Alb.Condino,,45.891405,10.601560,2311
1599,2311,Condino,,45.889020,10.599610,2311
1600,2311CI,Condino. Case Itea,,45.884991,10.596494,2311
1601,2311CA,Condino. Cartiere,,45.880387,10.592588,2311
1602,2311CP,Condino. Carpenteria,,45.874622,10.588411,2311
1603,2313,Ca' Rossa. Dfr.Bar Ristoro,,45.854843,10.566903,2314
1604,2314AL,Storo-Hotel Al Melograno,,45.850409,10.574880,2314
1605,2314,Storo,,45.848807,10.578087,2314
1606,2314AI,Storo-Al Melograno,,45.850170,10.575221,2314
1608,2313RR,Ca' Rossa,,45.852439,10.565999,2314
1609,2320SB,Darzo-Stork Club,,45.849191,10.559670,2320
1610,2320,Darzo,,45.841239,10.549703,2320
1611,2320ZI,Darzo-Zona Ind.Le,,45.834352,10.542858,2320
1612,2321,Lodrone,,45.829191,10.535457,2321
1613,2322,Ponte Caffaro Bivio,,45.825167,10.530744,2323
1614,2322MO,Ponte Caffaro-Mobilif.,,45.820922,10.539249,2323
1615,2322PE,Ponte Caffaro-Pescicoltura,,45.817880,10.543906,2323
1616,2323VL,Baitoni-Via Lago,,45.810326,10.543380,2323
1617,2323,Baitoni,,45.806812,10.538369,2323
1618,2290HR,Tione. Rist.Pellegrini,,46.029264,10.724132,2290
1619,2292RR,Polin,,46.026805,10.720062,2292
1620,2293RR,Breguzzo,,46.009867,10.700200,2293
1621,2293HR,Breguzzo-Hotel Carlone,,46.006441,10.697512,2293
1622,2294RR,Bondo,,46.000000,10.692831,2294
1623,2295RR,Prà di Bondo,,45.996468,10.690918,2295
1624,2296RR,Roncone,,45.984558,10.672080,2296
1625,2297RR,Fontanedo,,45.978897,10.666772,2297
1626,2298RR,Lardaro,,45.969769,10.661089,2298
1627,2301RR,Forti di Lardaro,,45.963003,10.658391,2305
1628,2302RR,Agrone,,45.954732,10.650272,2305
1629,2304RR,Strada,,45.944012,10.642639,2305
1630,2305BR,Pieve di Bono-Tratt.Borel,,45.935705,10.639070,2305
1631,2309RR,Cologna di P.Bono,,45.931271,10.637534,2309
1632,2311AR,Condino-Alb.Condino,,45.891387,10.601534,2311
1633,2311RR,Condino Albergo Corona.,,45.888993,10.599609,2311
1634,2311CR,Condino. Case Itea,,45.885118,10.596701,2311
1635,2311BR,Condino. Cartiere,,45.880369,10.592621,2311
1636,2314AR,Storo. Hotel Al Melograno,,45.850361,10.575059,2314
1637,2314RR,Storo,,45.848887,10.578160,2314
1638,2320RR,Darzo,,45.842290,10.550493,2320
1639,2320ZR,Darzo-Zona Ind.Le,,45.834079,10.542729,2320
1640,2321RR,Lodrone,,45.829322,10.535700,2321
1641,2322MR,Ponte Caffaro-Mobilif.,,45.821141,10.538883,2323
1643,2171,Poia,,46.028667,10.880069,2171
1644,2172,Godenzo,,46.028751,10.883204,2173
1645,2173,Comano,,46.034769,10.891020,2173
1646,2172RR,Godenzo,,46.028886,10.883222,2173
1647,2171RR,Poia,,46.028479,10.880065,2171
1648,2174,Lundo,,46.012779,10.884052,2174
1649,2211,Villa Banale,,46.046349,10.887434,2211
1650,2212UN,Premione-Via di Pestelan,,46.047642,10.880490,2212
1651,2212,Premione,,46.048272,10.874199,2212
1652,2213SE,Stenico-Scuola,,46.049860,10.856621,2213
1653,2213,Stenico,,46.051970,10.853877,2213
1654,2213CN,Stenico-Case Nuove,,46.052156,10.861016,2213
1655,2213DO,Stenico-Dologno,,46.053473,10.873473,2213
1657,2214,Seo,,46.057109,10.872921,2214
1658,2215UN,Sclemo-Via Dei Caputel,,46.053619,10.879383,2215
1659,2215,Sclemo,,46.055963,10.884039,2215
1660,2216,Tavodo,,46.066323,10.892201,2216
1661,2216SP,Tavodo-S.Provinciale,,46.064889,10.892126,2216
1662,2218,Dorsino,,46.073365,10.896856,2218
1663,2219,S.Lorenzo Dorsino,,46.076503,10.907302,2219
1664,2219CH,S.Lorenzo-Chiesa,,46.076671,10.909366,2219
1665,2220,Lago Nembia,,46.096096,10.932583,2220
1666,2220CE,Lago Nembia-Casa Enel,,46.107358,10.943024,2220
1669,0956,Molveno. Centro,,46.142420,10.963756,0956
1670,0956RR,Molveno,,46.140431,10.963724,0956
1671,0956DR,Molveno. Htl Du Lac,,46.141236,10.965604,0956
1672,0956GR,Molveno. Grand Htl,,46.134067,10.969556,0956
1673,2220CR,Lago Nembia,,46.095952,10.933321,2220
1674,2219RR,S.Lorenzo Dorsino,,46.076385,10.907679,2219
1675,2216SR,Tavodo-Incr.S.P.,,46.064760,10.892031,2216
1676,2215RR,Sclemo,,46.055895,10.884204,2215
1677,2215UR,Sclemo-Via Dei Caputel,,46.053762,10.879426,2215
1680,2213DR,Stenico-Dologno,,46.053480,10.873595,2213
1681,2213CR,Stenico-Case Nuove,,46.052286,10.860167,2213
1682,2213RR,Stenico,,46.051868,10.853803,2213
1683,2212RR,Premione,,46.048262,10.874062,2212
1684,2211RR,Villa Banale,,46.046301,10.887084,2211
1689,2303,Bersone,,45.944015,10.633505,2305
1690,2299,Praso,,45.949535,10.637414,2299
1691,2300,Daone,,45.947372,10.621183,2300
1692,4450ZA,Castelnuovo. Zanzibar,,46.060202,11.490308,4450
1693,4405,Carzano,,46.069841,11.493612,4405
1695,4500ST,Scurelle-Via Murazzo,,46.069128,11.498022,4500
1696,4520CV,Strigno-Loc.Colle,,46.067463,11.516069,4520
1697,4448,Spera,,46.070412,11.508852,4520
1698,4520CR,Strigno-Loc. Colle,,46.067494,11.515868,4520
1699,4497,Samone,,46.081222,11.521940,4497
1700,0960VL,Riva Del G. Bivio Val Ledro,,45.894755,10.842614,0960
1701,2163,Pregasina Bivio,,45.864433,10.812753,2163
1702,2160,Pregasina,,45.851215,10.824946,2160
1703,2142,Biacesa,,45.865049,10.805388,2142
1704,2143,Prè,,45.866332,10.788168,2143
1705,2162,Barcesino,,45.870892,10.781511,2162
1706,2144,Molina di Ledro,,45.871761,10.772215,2144
1707,2144LG,Molina di Ledro-Lago,,45.873682,10.766712,2144
1708,2145,Mezzolago,,45.881039,10.750446,2145
1709,2146,Pieve di Ledro,,45.889221,10.730941,2146
1710,2147VF,Bezzecca. Vigili Del Fuoco,,45.893203,10.723837,2147
1711,2147,Bezzecca. Scuole,,45.894713,10.720104,2147
1712,2148,Locca,,45.900292,10.725510,2147
1713,2149,Enguiso,,45.905794,10.729219,2147
1714,2150,Lenzumo,,45.912385,10.726404,2147
1715,2150BT,Lenzumo-Bar Taverna,,45.913164,10.728460,2147
1716,2149RR,Enguiso,,45.906000,10.729023,2147
1717,2148RR,Locca,,45.900427,10.725553,2147
1719,2155SL,Tiarno di Sotto. Bivio,,45.893014,10.705842,2155
1721,2155,Tiarno di Sotto,,45.893419,10.686730,2155
1722,2155GA,Tiarno di Sotto. Garage,,45.892869,10.680696,2155
1723,2156CA,Tiarno di Sopra. Cooperativa,,45.891253,10.674897,2156
1724,2156,Tiarno di Sopra,,45.889929,10.671905,2156
1725,2156MA,Tiarno di Sopra. Mariani,,45.882517,10.666038,2156
1726,2159,Ampola Agritur,,45.875781,10.658551,2159
1727,2157,Tremalzo Bivio,,45.864060,10.645286,2159
1728,2314CS,Storo Strada V.Di Ledro Civ.7,,45.846511,10.582364,2314
1729,2156MR,Tiarno di Sopra-Mariani,,45.882639,10.666287,2156
1730,2156RR,Tiarno di Sopra,,45.890019,10.671908,2156
1731,2145RR,Mezzolago,,45.880745,10.750804,2145
1732,2144LR,Molina di Ledro-Lago,,45.873879,10.766534,2144
1733,2144RR,Molina di Ledro,,45.871873,10.771779,2144
1734,2162RR,Barcesino,,45.871071,10.779829,2162
1735,2142RR,Biacesa,,45.864938,10.804950,2142
1736,2156CR,Tiarno di Sopra-Cooperativa,,45.891119,10.674815,2156
1737,2059,Padergnone. Bivio,,46.060261,10.992515,2090
1738,2048,Calavino,,46.045571,10.982810,2048
1739,2048VB,Calavino. Via Battisti,,46.041420,10.982351,2048
1740,2060,Madruzzo. Bivio,,46.033912,10.981411,2060
1741,2049PI,Lasino. Pizzeria 4 Stagioni,,46.024861,10.981216,2049
1742,2049,Lasino-Piazza,,46.023488,10.983346,2049
1743,2050BE,Stravino. Loc.Berlonga,,46.007748,10.981169,2050
1744,2050,Stravino,,46.003193,10.980430,2050
1745,2051TE,Cavedine. Telsar Spa,,45.997601,10.977439,2051
1746,2051,Cavedine,,45.993910,10.973345,2051
1747,2052,Brusino,,45.985835,10.975989,2052
1748,2051MA,Cavedine. Loc.Mai,,45.984137,10.977891,2052
1749,2053RR,Vigo Cavedine. Bivio,,45.978039,10.977660,2054
1750,2054,Vigo Cavedine,,45.978967,10.981218,2054
1752,2053,Vigo Cavedine. Bivio,,45.977948,10.977722,2054
1753,2055BV,Masi di Vigo Cavedine-Bivio,,45.972584,10.974058,2055
1754,2056,Luch,,45.965820,10.962326,2056
1755,2057,Drena,,45.971088,10.944496,2057
1756,2057LA,Lavini di Dro,,45.972772,10.934372,2127
1757,2126,Centrale di Drena,,45.967116,10.928189,2127
1758,3520CA,Arco. Via Capitelli,,45.919131,10.880040,3520
1759,3520OS,Arco. Ospedale,,45.918801,10.876024,3520
1760,2135,Chiarano,,45.918883,10.869411,3520
1761,2134,Vigne,,45.919902,10.864849,3520
1762,2133,Varignano,,45.918307,10.861654,3520
1764,2138,Ceole. Madonna Grazie,,45.913915,10.857781,3520
1765,2137,Pasina. Bivio,,45.905638,10.851483,2136
1766,3520OR,Arco. Ospedale,,45.918838,10.875973,3520
1769,3010VE,Mattarello. Ex St.Vestimenta,,46.000537,11.126170,3010
1770,3010FS,Mattarello. Ss12,,46.010332,11.128948,3010
1771,3620SP,Romagnano-Sp 131 Km 2,,46.009350,11.119326,3620
1772,3620SS,Romagnano-Sp131 Km 1,,46.012418,11.106719,3620
1773,3620CL,Romagnano-Cava Lonardi,,46.007833,11.107917,3620
1774,3620ST,Romagnano-Sp 90 Km 20,,46.002046,11.104935,3620
1775,3640MT,Aldeno-Maso Toricella,,45.991309,11.097813,3640
1776,3640CI,Aldeno-Cimitero,,45.982519,11.092480,3640
1777,3640,Aldeno,,45.976959,11.091823,3640
1779,0001SS,Trento.Via S.Severino,,46.051021,11.111587,0001
1782,3620,Romagnano. Bivio,,46.014855,11.106838,3620
1783,3640DO,Aldeno-Loc. Dossi,,45.973211,11.085159,3640
1784,3640LC,Aldeno-Loc. Ciausa,,45.975689,11.083535,3640
1785,3650,S. Giorgio di Cimone,,45.975508,11.079655,3650
1786,3671,Covelo di Cimone,,45.979308,11.070636,3670
1787,3671CO,Covelo-Fam Cooperativa,,45.978460,11.067760,3670
1788,3670BA,Cimone-Loc. Battistoni,,45.977955,11.064836,3670
1789,3670,Cimone,,45.978318,11.066139,3670
1790,3670PI,Cimone. Bivio Pietra,,45.981119,11.068556,3680
1791,3680,Cimoneri,,45.984459,11.072221,3680
1792,3680GA,Gazi,,45.983250,11.075581,3680
1793,3690VN,Garniga Terme-Loc. Zobbio,,45.990055,11.083480,3690
1794,3690,Garniga Terme,,46.001406,11.085869,3690
1795,3690PL,Garniga-Piazza Lago,,46.004809,11.085837,3690
1796,3695CE,Garniga Vecchia-Case di Sotto,,46.012363,11.078789,3695
1798,3695,Garniga Vecchia,,46.013523,11.083561,3695
1799,3620RR,Romagnano. Bivio,,46.016038,11.107802,3620
1801,0001BF,Trento. Tangenziale,,46.047754,11.113561,0001
1803,4120,Serso,,46.074834,11.253089,4120
1804,4121VM,Viarago. Via Delle Miniere,,46.082001,11.268848,4112
1806,4121,Viarago,,46.079812,11.262165,4112
1807,0001CM,Trento. V. S.Francesco,,46.067015,11.126392,0001
1811,3710MA,S.Rocco. Maso,,46.026388,11.145845,3710
1813,3730,Valsorda,,46.007837,11.156881,3730
1814,3730DU,Valsorda Parco Rimembranza,,46.006315,11.163590,3730
1818,3750MA,Bosentino. Loc.Mandola,,46.000373,11.216258,3740
1819,3750,Bosentino,,46.001471,11.223212,3740
1820,3750MR,Bosentino. Loc.Mandola,,46.000566,11.216059,3740
1823,3760DU,Vattaro. Civ.80,,45.990024,11.218970,3760
1824,3791,Campregheri. Bivio,,45.984609,11.232633,3791
1826,3790,Centa,,45.969511,11.232839,3790
1827,3780,Centa. Bivio,,45.967432,11.226831,3790
1828,3780MC,Centa. Bivio M.Cioli,,45.963372,11.220882,3790
1829,3800,Menegoi,,45.952789,11.214269,3800
1830,3810,Fricca,,45.949416,11.209038,3810
1831,3820,Carbonare,,45.934440,11.226632,3820
1832,3830AB,Nosellari. Alb. Al Bivio,,45.931382,11.244893,3830
1833,3830,Nosellari,,45.929511,11.249884,3830
1834,3830DA,Dazio,,45.928454,11.256432,3830
1835,3830PS,Pra di Sopra,,45.930932,11.250609,3849
1836,3849,Lago di Lavarone,,45.933982,11.255934,3849
1837,3850HL,Lavarone. Htl Du Lac,,45.937155,11.255224,3850
1838,3850,Lavarone. Chiesa,,45.941014,11.251665,3850
1839,3863,Lanzino,,45.947306,11.250759,3863
1840,3862,Stengheli,,45.949562,11.258656,3862
1841,3860,Bertoldi,,45.950405,11.263147,3860
1842,3861,Azzolini,,45.942712,11.265035,3861
1843,3851,Gionghi,,45.940721,11.269663,3851
1844,3870,Lavarone Cappella,,45.936709,11.275433,3870
1845,3878,Gasperi,,45.940597,11.276804,3878
1846,3880,Casanova,,45.941233,11.279660,3880
1847,3880BM,Masetti. Bivio,,45.954258,11.294437,3890
1848,3890,Monterovere,,45.960662,11.297380,3890
1849,3895SP,Luserna. Sp9,,45.924892,11.317931,3895
1850,3895,Luserna,,45.921654,11.324250,3895
1851,3830RR,Nosellari,,45.929642,11.249469,3830
1852,3830AR,Nosellari. Alb. Al Bivio,,45.931477,11.244820,3830
1853,0001ML,Trento. Via Milano,,46.060801,11.127560,0001
1856,4200HM,S.Cristoforo. Htl Meridiana,,46.039519,11.242428,4200
1857,4210,Ischia di Pergine,,46.033155,11.247720,4210
1858,4211MR,Albere'. Maso Roveri,,46.031614,11.251896,4211
1859,4211,Alberè di Tenna,,46.029542,11.255650,4211
1860,4212BS,Tenna. Bivio Pontara Serafini,,46.023292,11.261977,4212
1861,4212SP,Tenna. Sp 16 Al Km 4,,46.017114,11.266267,4212
1863,4212,Tenna,,46.012781,11.266693,4212
1865,3100VP,Rovereto. Via Paoli,,45.891150,11.039961,3100
1866,3100VC,Rovereto Via Craffonara,,45.886591,11.034167,3100
1867,3100PD,Rovereto. Via Calcinari,,45.886539,11.044665,3100
1869,3100AT,Rovereto. Ex Cartiera Ati,,45.887115,11.050650,3100
1870,3100SC,Rovereto. Rist. S.Colombano,,45.885320,11.059866,3100
1871,3150,Trattoria Genovesa,,45.882615,11.062598,3150
1872,3151SP,Toldo-Sp 50 Km 0.2 Balanzi,,45.877319,11.065782,3151
1874,3151,Toldo,,45.875509,11.068765,3151
1875,3151AU,Toldo-Loc. Auga,,45.874366,11.069822,3151
1876,3183,Moscheri,,45.868419,11.073187,3183
1877,3184,Clocchi,,45.866543,11.073860,3184
1878,3184BA,Barde,,45.862599,11.075465,3153
1879,3153,Vignala,,45.861927,11.082474,3153
1880,3154,Boccaldo,,45.857706,11.085125,3154
1881,3154AL,Boccaldo Alta,,45.857139,11.088105,3154
1882,3154BV,Giazzera Bivio,,45.861604,11.087084,3154
1883,3182,Pozza di Trambileno,,45.863266,11.085268,3154
1884,3154AR,Boccaldo Alta,,45.857598,11.087985,3154
1885,3154RR,Boccaldo R,,45.857758,11.085256,3154
1886,3155VN,Vanza Vn,,45.854587,11.078516,3155
1888,3155,Vanza,,45.852887,11.077951,3155
1889,3155DV,Vanza-Civ. 82,,45.851556,11.077386,3155
1890,3155BV,Vanza-Bivio Pozzacchio,,45.846393,11.075714,3155
1891,3253,Pozzacchio,,45.834587,11.082960,3253
1893,3100OS,Rovereto. Ospedale,,45.881832,11.038061,3100
1894,3295SM,Lizzana-Scuole,,45.870015,11.030929,3100
1895,3295,Lizzana,,45.866873,11.030680,3100
1896,3295RO,Lizzana-Rovercenter,,45.864519,11.029205,3100
1897,3341LA,Marco-Lavini,,45.853419,11.014571,3341
1898,3341OF,Marco-Officina,,45.843877,11.008603,3341
1899,3341,Marco,,45.841830,11.007727,3341
1900,3341VA,Marco-Via Varini,,45.836853,11.010999,3341
1901,3341ZI,Marco-Zona Ind.Le,,45.825549,11.010720,3341
1902,3342,Serravalle,,45.809259,11.014915,3342
1903,3343TV,S.Margherita Via Trento/Vanga,,45.800294,11.023362,3343
1904,3343,S.Margherita,,45.796906,11.024863,3343
1905,3344CA,Marani-Loc.Cumer,,45.785014,11.018627,3344
1906,3344,Marani,,45.780826,11.015698,3344
1907,3344FO,Marani-Via Campagnole,,45.773439,11.011444,3344
1908,3344MO,Marani-Fabbrica Bvm,,45.773678,11.012687,3344
1909,3344CE,Marani-Centrale Elettrica,,45.769788,11.010219,3344
1910,3345,Pilcante. Bivio,,45.762313,11.004846,3346
1911,3346,Ala. Via Malfatti,,45.758398,11.000745,3346
1912,3346OS,Ala. Ospedale Bivio,,45.756790,10.999016,3346
1913,3347CA,Sdruzzinà-Loc.Campagnola,,45.742707,10.980734,3347
1914,3347,Sdruzzinà,,45.740832,10.977280,3347
1915,3358,Vò Sinistro,,45.735022,10.959228,3358
1916,3357,Sabbionara,,45.740018,10.957603,3349
1918,3350CC,Avio-Carabinieri,,45.736954,10.946500,3350
1919,3350,Avio,,45.735489,10.942933,3350
1920,3350CS,Avio-Cantina Sociale,,45.732174,10.938340,3350
1921,3350VB,Avio. Via M.Baldo,,45.731592,10.934435,3350
1922,3350CR,Avio-Cantina Sociale,,45.732379,10.938977,3350
1923,3350ZI,Avio-Zona Ind.Le,,45.730364,10.939478,3350
1924,3350DA,Avio-Loc.Dazio,,45.711911,10.926737,3350
1925,3351,Mama D'avio,,45.704726,10.921750,3351
1926,3351SO,Mama D'avio di Sotto,,45.700607,10.918679,3351
1927,3352,Borghetto,,45.697001,10.925942,3352
1928,3352CA,Borghetto-Cavalcaferr.,,45.699086,10.928925,3352
1929,3353,S.Leonardo,,45.704662,10.930990,3353
1930,3354,Masi D'avio,,45.712332,10.936854,3354
1931,3100CV,Rovereto. Via Cavour,,45.887281,11.034550,3100
1933,3040BV,Calliano. Bivio Folgaria,,45.933180,11.096303,3040
1934,3041,Dietrobeseno,,45.927046,11.118482,3041
1935,3042SO,Mezzomonte di Sotto,,45.916957,11.134877,3042
1936,3042,Mezzomonte,,45.916422,11.138918,3042
1937,3043,Peneri,,45.918996,11.145345,3043
1938,3044,Carpeneda,,45.912806,11.156999,3044
1939,3045OB,Folgaria. Ortofr.Bolognani,,45.918965,11.157831,3045
1940,3045AP,Folgaria. Via 25 Aprile,,45.918634,11.162219,3045
1941,3045PG,Folgaria. Via Battisti,,45.917297,11.166763,3045
1943,3048GA,Costa. Htl Garden,,45.918748,11.186271,3048
1944,3048,Costa di Folgaria,,45.920180,11.188636,3048
1945,3048BN,Bivio Nocchi,,45.919068,11.198432,3048
1946,3054,Passo Del Sommo,,45.919567,11.205944,3054
1947,3049,S.Sebastiano,,45.925011,11.212054,3049
1948,3049CA,S.Sebastiano-Sez.Cacciatori,,45.925469,11.214884,3049
1949,3049BC,Bivio Cueli,,45.923765,11.216201,3049
1950,3053,Morganti,,45.929360,11.221269,3053
1951,3053RR,Morganti,,45.929175,11.220990,3053
1952,3048GR,Costa. Difr. Garden Htl,,45.918768,11.186156,3048
1954,3048RR,Costa di Folgaria,,45.920369,11.189056,3048
1956,3040BR,Calliano. Bivio Folgaria,,45.933019,11.096718,3040
1958,3101,Villa Lagarina-A22,,45.914606,11.033871,3101
1959,3101CC,Villa Lagarina-Carabinieri,,45.916304,11.034062,3101
1960,3102,Piazzo di Villa Lagarina,,45.922241,11.033964,3102
1961,3103,Pomarolo,,45.926259,11.042603,3103
1962,3103VP,Pomarolo. Chiesa,,45.926406,11.045613,3103
1963,3104,Chiusole,,45.925420,11.053258,3104
1964,3105,Nomi,,45.928721,11.072320,3105
1965,3105RI,Nomi. Casa di Riposo,,45.927894,11.076198,3105
1967,3100VB,Rovereto. Via Bellavista,,45.890920,11.047004,3100
1968,3201CA,Campolongo di Noriglio,,45.887004,11.063810,3201
1969,3201,Noriglio,,45.884542,11.069557,3201
1970,3201BE,Noriglio-Beccachè,,45.882076,11.071790,3201
1971,3198,Costa di Noriglio,,45.884273,11.072988,3198
1972,3207SP,Valgrande. Sp3 Km 8,,45.877091,11.105901,3207
1973,3207,Valgrande,,45.878839,11.111132,3207
1974,3208VN,Valduga-Prima,,45.876702,11.124249,3208
1976,3208,Valduga,,45.877809,11.129781,3208
1977,3222,Pedrazzi,,45.878153,11.142220,3222
1978,3226,Peltreri,,45.878740,11.148786,3226
1979,3209,Piazza di Terragnolo,,45.878929,11.152414,3209
1980,3225,Dosso,,45.877625,11.155663,3215
1981,3215,Puechem,,45.877318,11.157880,3215
1982,3224,Camperi,,45.875170,11.161044,3215
1983,3223UN,Baisi-Prima,,45.867057,11.180172,3223
1985,3223,Baisi,,45.867137,11.182107,3223
1986,3210ZZ,Zoreri,,45.866337,11.184369,3210
1987,3210,Zoreri-Soldati,,45.864869,11.190058,3210
1988,3219,Costa di Terragnolo,,45.880793,11.148053,3219
1989,3219CA,Castello,,45.880834,11.141525,3219
1990,3197,Potrich Bivio,,45.883305,11.123671,3197
1991,3212UN,Scottini-Prima,,45.884471,11.129211,3212
1992,3212,Scottini,,45.883891,11.135233,3212
1993,3047,Serrada,,45.890916,11.154070,3047
1994,3047BF,Serrada-Bivio Fondogrande,,45.896172,11.155746,3047
1995,3046,Mezzaselva,,45.906007,11.173587,3046
1997,3045BS,Folgaria. Rotatoria,,45.913039,11.178085,3045
1998,3047RR,Serrada,,45.891050,11.154036,3047
1999,3302,Mori. Via Terranera,,45.848564,10.982913,3310
2000,3363,S.Cecilia,,45.823141,10.998178,3363
2001,3362CC,Chizzola-Cava Cipriani,,45.819120,11.000155,3362
2002,3362SP,Chizzola-Sp. 90 Km 16.8,,45.817738,11.003964,3362
2003,3362EU,Chizzola-Euromobili,,45.813499,11.008310,3362
2004,3362,Chizzola,,45.809175,11.008766,3362
2005,3364,Villetta,,45.807112,11.009863,3364
2006,3356,S.Lucia di Ala,,45.797366,11.015411,3356
2007,3367CA,Pilcante-Capitelli,,45.772609,11.001559,3346
2008,3367SC,Pilcante-Scuole,,45.770486,11.001246,3346
2009,3367,Pilcante,,45.767191,11.000763,3346
2010,3340,Campagnola,,45.757938,10.992037,3340
2011,3349CA,Sabbionara-Casello Autostr.,,45.746871,10.976754,3349
2013,3405BC,Cornè-Bivio Saccone,,45.810938,10.980436,3405
2014,3405FC,Cornè-Fam.Coop,,45.807942,10.971565,3405
2015,3405,Corne',,45.807953,10.970914,3405
2018,3367CV,Pilcante-Cave,,45.778359,11.002674,3346
2019,3100VD,Rovereto. Via Dante,,45.886463,11.040331,3100
2020,3100VH,Rovereto. Viale Schio 19,,45.883684,11.043474,3100
2021,3100VZ,Rovereto. Via Zugna Civ. 13,,45.884371,11.046557,3100
2022,3230,Bivio Porte di Trambileno,,45.883260,11.051310,3230
2023,3230DO,Dosso-Loc. Brentegan,,45.880223,11.051099,3230
2024,3231SI,Sich,,45.873858,11.058115,3230
2025,3231,Albaredo,,45.855995,11.061132,3231
2026,3232,Foppiano,,45.842063,11.061810,3232
2027,3233,Zanolli,,45.822793,11.070760,3233
2028,3234,Matassone,,45.815853,11.078228,3234
2029,3235,Aste,,45.790383,11.095311,3162
2030,3236,Cumerlotti,,45.787135,11.101381,3236
2031,3237,Riva di Vallarsa,,45.779571,11.105235,3237
2032,3238,Bruni,,45.776691,11.107622,3238
2033,3243,Geche,,45.769337,11.115938,3243
2034,3239,Obra di Vallarsa,,45.764916,11.116502,3239
2035,3240,Ometto,,45.759715,11.118826,3240
2036,3100SM,Rovereto. S.Maria,,45.883633,11.040798,3100
2060,3157,Vanza. Bivio,,45.850946,11.073050,3155
2061,3158,Pozzacchio. Bivio,,45.844984,11.074255,3155
2062,3159,Valmorbia,,45.818618,11.091657,3159
2063,3159BD,Bivio Dosso di Valmorbia,,45.816939,11.094621,3159
2064,3160,Zocchio,,45.809065,11.096514,3160
2065,3161FC,Anghebeni. Fam.Coop,,45.796466,11.105434,3162
2066,3149,Arlanch,,45.790988,11.102063,3162
2067,3162,S.Anna di Vallarsa,,45.794758,11.096736,3162
2068,3149RR,Arlanch-Dir. Raossi,,45.791126,11.101784,3162
2069,3161,Anghebeni,,45.794141,11.107315,3162
2070,3163,Foxi,,45.789794,11.111885,3163
2071,3163PR,Foxi-Loc.Prugnele,,45.787189,11.109189,3163
2072,3164CO,Raossi-Loc.Corte,,45.782482,11.114262,3164
2073,3164,Raossi,,45.782693,11.118680,3164
2074,3171,Speccheri. Bivio,,45.781151,11.124398,3167
2075,3167,Parrocchia di Vallarsa,,45.776986,11.123301,3167
2076,3168UN,Piano,,45.773237,11.131267,3167
2077,3168,Piano di Vallarsa,,45.771494,11.135678,3167
2078,3170,Streva,,45.762477,11.161869,3166
2079,3169,Pian Delle Fugazze,,45.760391,11.172668,3166
2084,3156,Spino,,45.860265,11.074842,3156
2085,3165,Speccheri,,45.765509,11.129885,3165
2086,3166SE,Camposilvano Ii,,45.758240,11.144359,3166
2087,3166,Camposilvano,,45.760189,11.144106,3166
2099,3389,Ronzo Chienis,,45.891087,10.951840,3389
2100,3389VL,Ronzo Chienis-Via Longa,,45.888624,10.948740,3389
2101,3389CF,Ronzo Chienis-Cons.Ortofrutta,,45.886909,10.946661,3389
2102,3385,Varano,,45.881318,10.938411,3385
2103,3384,Pannone,,45.877265,10.934159,3384
2104,3382RR,Manzano.,,45.866524,10.953422,3381
2105,3383,Nomesino,,45.865456,10.962699,3381
2106,3382,Manzano,,45.866575,10.953604,3381
2107,3381,Valle S. Felice,,45.868988,10.938218,3381
2108,3460BL,Loppio. Bivio,,45.855770,10.932163,3460
2123,3450VB,Tierno-Via G.Battisti,,45.847789,10.978014,3310
2124,3450,Tierno,,45.845531,10.977542,3310
2125,3401,Besagno,,45.837659,10.969124,3401
2126,3402,Castione,,45.837801,10.953531,3407
2127,3407PA,Brentonico-Ferramenta,,45.819440,10.958236,3407
2128,3407,Brentonico,,45.817937,10.956111,3407
2129,3406,Fontechel,,45.816501,10.948273,3407
2130,3406BG,Fontechel-Bivio S.Giacomo,,45.814087,10.945967,3407
2131,3411,Prada,,45.801037,10.955918,3411
2132,3412BU,Saccone-Loc. Al Bus,,45.796067,10.965987,3412
2133,3412,Saccone,,45.795393,10.974288,3412
2134,3415,Crosano. Bivio,,45.821313,10.967064,3407
2135,3407MO,Brentonico-Mobil.Zoller,,45.822387,10.962755,3407
2136,3413,Sorne,,45.808236,10.953403,3413
2137,3414,Cazzano,,45.816981,10.969310,3407
2138,3403SE,Crosano-Via S.Biagio 25/27,,45.818934,10.975082,3407
2141,3403,Crosano-Fam. Coop.,,45.820049,10.975654,3407
2142,3403UN,Crosano-Via Mazzini,,45.820614,10.970803,3407
2145,3405UN,Cornè Loc. Gai,,45.808687,10.967859,3405
2150,2042PR,Lon .,,46.084021,10.992621,2040
2151,1410,Passo Fedaia,,46.453834,11.887751,1410
2154,2670RF,Lagolo. Parco Giochi,,46.041156,11.004709,2670
2155,2670,Lagolo-Capolinea,,46.037318,11.002882,2670
2156,1190VM,Tesero. Via Mulini,,46.296357,11.506056,1190
2157,1190PE,Tesero. Loc. Pesa,,46.305821,11.504982,1190
2159,1182,Stava,,46.315423,11.503407,1182
2162,1192,Alpe Pampeago,,46.342028,11.540492,1192
2163,1161VA,Varena. Via Alpini-Dir.Lavazè,,46.307731,11.460131,1160
2164,1159,Bancoline. Rist. La Baita,,46.314229,11.471465,1160
2165,1162,Chiusa,,46.320671,11.483563,1162
2166,1163,Stava. Bivio,,46.327236,11.483809,1182
2167,1164,Passo Lavaze',,46.354515,11.492184,1164
2169,1165,Passo Oclini,,46.347489,11.454517,1165
2171,1400,Pian Trevisan. Bar El Cosinat,,46.461332,11.828171,1400
2172,1400PT,Pian Trevisan. Bivio,,46.462006,11.832753,1400
2173,1420,Lago Fedaia,,46.463982,11.862019,1420
2174,1100SR,Civezzano-Quadrivio,,46.089186,11.185612,1100
2175,5150,Lago Welsperg,,46.194069,11.866561,5153
2176,5153,Villa Welsperg,,46.198464,11.867165,5153
2177,5155,Piereni,,46.206165,11.871261,5153
2178,5147,Val Canali,,46.217651,11.877643,5153
2180,5116AL,Albergo Lozen,,46.175313,11.777613,5121
2181,5121,Lago Calaita,,46.201784,11.792377,5121
2193,1100OX,Civezzano. Scuola Media,,46.092560,11.179562,1100
2194,3840,Virti,,45.945492,11.238622,3850
2204,4331,Vetriolo Terme,,46.041896,11.317071,4331
2205,4300TE,Terme di Levico,,46.014142,11.296808,4300
2206,4332,Baiti di Vetriolo,,46.029556,11.333591,4332
2207,4331RC,Ristorante Cacciatore,,46.031894,11.341916,4332
2208,4330,Compet,,46.039357,11.299896,4331
2210,4290BV,Visintainer. Bivio,,46.032038,11.267094,4290
2211,4136,Falesina,,46.071005,11.277768,4136
2212,4511,Ivano Fracena,,46.057116,11.528159,4511
2213,0001BZ,Trento. Via Bezzi,,46.058467,11.119266,0001
2217,1220PI,Predazzo. Piscina Com.,,46.311472,11.615514,1220
2221,1128CV,Barcatta. Civ. 31,,46.251161,11.350424,1128
2230,5146AB,Transacqua. Albergo Belvedere,,46.177765,11.837156,5140
2231,5146,Transacqua. Piazza S.Marco,,46.174807,11.833415,5140
2232,5146IS,Transacqua. Isolabella,,46.175239,11.831610,5140
2234,5141TP,Tonadico. 3 Ponti,,46.179987,11.837944,5140
2236,4128,S.Caterina di Pergine,,46.017256,11.227009,4250
2238,3480RR,Torbole,,45.871537,10.875033,3480
2241,2650RO,Rocce Rosse,,46.031915,11.045705,2650
2242,3100CR,Rovereto. C.Rosmini Pt,,45.891069,11.041275,3100
2244,3100MO,Rovereto. Rosmini-Monumento,,45.890843,11.043031,3100
2246,1078CR,Cembra. Cimitero,,46.174569,11.217540,1078
2247,1106MJ,Bosco. Maso Jobstraibizer,,46.113246,11.179412,1106
2248,3520SR,Arco. Svizzera,,45.921146,10.891381,3520
2250,3533RR,Arco. Via S.Caterina,,45.912518,10.875502,3520
2252,4143,Hacleri,,46.124460,11.339729,4143
2254,3640MC,Aldeno-Maso Canova,,45.964223,11.092594,3640
2255,5170RD,Valmesta. Bivio Dismoni,,46.222621,11.809215,5170
2256,4520CO,Strigno-Via Roma,,46.063335,11.523673,4520
2257,4137MR,Roncogno. Maso Raot,,46.067441,11.209970,4137
2258,4111PO,Zivignago. Al Ponte,,46.072254,11.261132,4111
2259,4121MO,Viarago. Via Montegian,,46.079286,11.259872,4112
2260,1224VE,Passo Rolle. Albergo Venezia,,46.296225,11.782401,1224
2264,3080ST,Ss12 S.Ilario/Via Stroperi,,45.912456,11.043863,3100
2265,2021CS,Terlago. Centro Sportivo,,46.088960,11.047684,2021
2266,2650SP,Vason-Sp85 Al Km 17,,46.042742,11.061769,2650
2267,2021FS,Terlago. Via Fies,,46.099088,11.042561,2021
2269,2470PO,S.Antonio di Mav.-Loc. Pozze,,46.184054,10.776845,2470
2271,2200IT,Cavrasto. Itea,,46.018632,10.818607,2185
2273,2202SE,Balbido-Scuole,,46.016039,10.815915,2202
2274,2180SP,Ponte Arche Sp5 Civ. 1,,46.035110,10.868132,2180
2278,2053SP,Vigo Cavedine Sp84,,45.977989,10.976705,2054
2279,2056BP,Luch. Bivio Con Via Del Ponte,,45.969281,10.968596,2056
2280,2031,Baselga Del Bondone,,46.078318,11.046920,2030
2281,3030PO,Besenello. Posta Vecchia,,45.951254,11.108000,3030
2283,2670PN,Lagolo Sp85 Km. 23.5,,46.035397,11.022795,2670
2286,2149VB,Enguiso Via Del Bo' Civ. 2,,45.909556,10.728930,2147
2287,2147EU,Bezzecca. Eurospin,,45.895356,10.715057,2147
2288,2155DE,Tiarno di Sotto Loc. Degara,,45.892988,10.690919,2155
2289,2321HC,Lodrone-Hotel Castel Lodrone,,45.830812,10.539371,2321
2290,2250CR,Ragoli "Croce",,46.054689,10.781687,2240
2291,2303CA,Bersone-Capolinea,,45.946321,10.632473,2305
2292,2299SV,Praso-Loc. Sevror,,45.953885,10.641928,2299
2293,0956CI,Molveno. Cimitero,,46.141389,10.965584,0956
2295,0960BC,Brione. Case Itea,,45.879610,10.859098,0960
2296,0960BO,Brione. H.Orchidea,,45.884338,10.862800,0960
2297,3532,S.Alessandro,,45.888029,10.862196,0960
2299,3532VR,S.Alessandro. Via Rovigo,,45.886951,10.858209,0960
2300,3532CA,S.Alessandro. Cartiera,,45.887068,10.855454,0960
2301,3521GR,S.Giorgio. La Grotta,,45.893713,10.860858,3520
2302,3521,S.Giorgio,,45.898583,10.867401,3520
2303,3521SP,S.Giorgio. Incr.V.Sabbioni,,45.900713,10.870374,3520
2304,3521AR,S.Giorgio. Zona Artigianale,,45.905119,10.875016,3520
2305,3521VM,S.Giorgio. Circonvallazione,,45.908088,10.877798,3520
2306,3520MB,Arco. Via Mantova 1,,45.909987,10.879474,3520
2307,3520MA,Arco. Via Mantova 21,,45.912913,10.882711,3520
2308,3520VM,Arco. Via Monache Poste,,45.916064,10.884855,3520
2309,2136SG,Varone. Via Venezia/Sega,,45.908157,10.844883,2136
2310,2136VV,Varone. Via Venezia/Ferrari,,45.908697,10.842103,2136
2311,0960MR,Riva Del G. V.Martiri,,45.887604,10.844053,0960
2313,0960VR,Riva V.Rovereto Vv.Ff.,,45.884007,10.851074,0960
2314,0960DC,Riva Del G. Via D. Chiesa,,45.888586,10.846173,0960
2316,3300SA,Ss. 240-Mariani,,45.870231,11.016712,3100
2317,3239CV,Obra di Vallarsa Civ. 13,,45.766710,11.114410,3239
2318,3151ER,Eremo di S. Colombano,,45.878686,11.063384,3150
2319,3100LI,Rovereto. Via Barattieri,,45.896492,11.040686,3100
2320,2289,Tione. Ospedale,,46.043031,10.724961,2290
2322,3540IG,Massone. Inc.Via Gazzoletti,,45.916854,10.901285,3520
2324,3720WE,Brusafer,,46.012192,11.147853,3720
2326,3760MF,Vattaro. Maso Fosina,,45.997040,11.211760,3760
2329,3405LO,Cornè-Loc. Lodrone,,45.805623,10.974984,3405
2330,3406LA,Loc. Landrom Civ. 1,,45.805130,10.940759,3407
2331,3416SA,Loc.Cave di Corne'-Loc.Saiori,,45.809262,10.981072,3405
2332,3416CV,Loc.Cave Ii di Corne'-L.Cioni,,45.808106,10.981855,3405
2333,3381PI,Piantino,,45.860712,10.937411,3381
2334,3381CI,Valle S.Felice-Cimitero,,45.867807,10.939938,3381
2335,3382BV,Manzano-Bivio,,45.864539,10.950028,3381
2336,3389BO,Ronzo Chienis-Via Bordala,,45.892389,10.953620,3389
2338,4042AL,Montagnaga. Villa Alpina,,46.101491,11.236261,4042
2340,5143MV,Passo Cereda. Maso Vaietta,,46.197439,11.918306,5143
2342,2122,Pergolese,,46.026608,10.959249,2122
2345,3101MA,Villa Lagarina-Via Magrè,,45.917603,11.033511,3101
2346,3103PI,Pomarolo-Via Del Pionte,,45.925171,11.048057,3103
2348,3341VN,Marco Via Ii Novembre 30,,45.847797,11.011651,3341
2349,3185,Bastianello,,45.762873,11.127613,3165
2350,3187,Pezzati,,45.764686,11.126435,3165
2351,5260,Luxottica-Agordo,,46.284252,12.021336,5260
2352,3677,Vigile,,45.973218,11.057986,3680
2353,3681,Costa di Cimone,,45.978263,11.060239,3680
2354,3676,Finestrella,,45.980687,11.061052,3680
2355,3675,Pietra di Cimone,,45.981135,11.063689,3680
2356,3051,Guardia di Folgaria,,45.907383,11.132641,3051
2357,5140RO,Fiera di P. Via Roma 75,,46.182359,11.831562,5140
2358,4048VT,Regnana. Via Dei Tamagi,,46.158145,11.303489,4048
2359,4570VF,Pieve Tesino Vigili Del Fuoco,,46.066276,11.616181,4550
2361,4270FI,Caldonazzo. Distr. Fina,,45.996385,11.259230,4270
2362,4300VA,Levico T.-Inc. Via Delle Alte,,46.017561,11.341845,4300
2363,4382,Gionzeri,,46.057250,11.409697,4382
2364,4520ME,Strigno,,46.065983,11.523172,4520
2365,4448CA,Spera-Capolinea.,,46.075037,11.506861,4520
2367,4467PA,Villa-Solo Dir. Strigno Fs,,46.056891,11.519590,4449
2368,1020,Cadino,,46.217405,11.153407,1020
2371,2621LV,Sopramonte Sp85 Loc. La Valle,,46.075882,11.056027,2621
2372,2621SP,Sopramonte Sp 85,,46.075775,11.058706,2621
2373,2621,Sopramonte,,46.071315,11.059205,2621
2374,2621MB,Maso Banal,,46.069075,11.063405,2621
2376,1070OS,Cavalese. Ospedale,,46.289134,11.454832,1070
2378,1164MV,Passo Lavazè,,46.352295,11.484099,1164
2379,0961VP,S.Martino di C. Ex Pisoni,,46.277780,11.798399,0961
2382,2430VP,Caderzone Bivio Con Via Pozze,,46.125241,10.754488,2430
2383,1077CR,Lisignago. Casa di Riposo,,46.161790,11.198435,1077
2385,6300,Male',,46.353568,10.916860,6300
2386,6290BV,Terzolas. Bivio Val di Rabbi,,46.358215,10.917232,6300
2387,6321BV,Magras. Bivio,,46.360122,10.912461,6300
2388,6321,Loc. Molini,,46.366694,10.891512,6321
2389,6322SD,Pracorno-Sud,,46.370048,10.883500,6322
2390,6322,Pracorno,,46.373171,10.878304,6322
2391,6322BP,Pracorno Bivio Pozze,,46.378807,10.869660,6322
2392,6323,Tasse',,46.390586,10.860424,6323
2393,6323NO,Tassè Nord,,46.394023,10.856868,6323
2394,6324SD,S.Bernardo Sud,,46.398432,10.849458,6324
2395,6324,S. Bernardo,,46.401239,10.845312,6324
2396,6325,Piazzola. Bivio,,46.406017,10.828568,6327
2397,6327CA,Casna,,46.406059,10.831609,6327
2398,6327PE,Penasa-Bivio,,46.406915,10.832108,6327
2399,6327NI,Nistella,,46.408995,10.828332,6327
2400,6327CR,Crespion,,46.410258,10.823655,6327
2401,6327,Piazzola,,46.410435,10.817915,6327
2402,6327NO,Piazzola-Nord,,46.409741,10.814021,6327
2403,6328SD,Somrabbi-Sud,,46.409814,10.810173,6328
2405,6328MI,Somrabbi-Misseroni,,46.409866,10.803279,6328
2406,6328,Somrabbi,,46.410071,10.800280,6328
2407,6326SD,Rabbi Bagni-Sud,,46.407766,10.811433,6327
2408,6326BS,Rabbi Bagni-Bar Stella,,46.407755,10.813267,6327
2409,6326,Rabbi Bagni,,46.407620,10.808735,6327
2410,6327MN,Masnuovo,,46.407370,10.824469,6327
2411,6300NO,Male' Nord,,46.350061,10.909670,6300
2413,6310,Croviana. Via Nazionale,,46.345139,10.903691,6310
2414,6320SU,Monclassico Sud,,46.335934,10.893302,6320
2415,6320,Monclassico,,46.333268,10.888501,6320
2416,6330,Presson,,46.332437,10.879962,6340
2417,6340BV,Dimaro. Coop,,46.327363,10.872172,6340
2418,6340,Dimaro. Piazza Centrale,,46.325262,10.874890,6340
2419,6340MB,Località Bonetei,,46.320999,10.872234,6340
2420,6341,Costa Rotian,,46.317748,10.867678,6341
2421,6342,Folgarida,,46.305592,10.863342,6342
2422,6342SU,Sun Valley,,46.304640,10.867089,6342
2423,6343,Belvedere,,46.297442,10.867488,6343
2424,6344,Genziana,,46.260117,10.854858,6344
2426,0001TM,Trento Ftm,,46.074289,11.120764,0001
2427,6220,Cles. Autostazione,,46.364610,11.038658,6220
2429,6301,Mangiasa,,46.350218,10.899064,6301
2430,6387,Claiano. Bivio,,46.312710,10.776893,6386
2431,6386,Pellizzano,,46.311376,10.757830,6386
2432,6388SD,Termenago Sud,,46.315407,10.764908,6388
2433,6388,Termenago,,46.316572,10.765803,6388
2434,6389,Castello di Pellizzano,,46.321749,10.774396,6389
2435,6390,Ortisè,,46.326212,10.784860,6390
2436,6391,Menas,,46.328403,10.786373,6391
2437,6302,Bolentina,,46.344185,10.883601,6302
2438,6303,Montes,,46.340465,10.875559,6302
2440,6340PT,Dimaro. Sporthotel Rosatti,,46.327956,10.870292,6340
2441,6350DE,Deggiano Bivio,,46.323838,10.851490,6350
2442,6350,Mastellina,,46.322222,10.846837,6350
2443,6360,Mestriago,,46.321368,10.839833,6360
2445,6370,Piano di Commezzadura,,46.320439,10.825415,6370
2446,6380SD,Mezzana-Est,,46.317000,10.806382,6380
2447,6380,Mezzana. Despar,,46.315748,10.802457,6380
2448,6380ND,Mezzana. Ovest,,46.316618,10.798628,6380
2452,6395,Cusiano,,46.309862,10.745639,6395
2453,6398,Ossana,,46.307527,10.736461,6398
2454,6401,Fucine,,46.311164,10.731617,6401
2455,6408CO,Cortina di Vermiglio,,46.299592,10.699085,6408
2456,6408SU,Vermiglio Sud,,46.297617,10.695765,6408
2457,6408,Vermiglio,,46.296725,10.689142,6408
2458,6408NO,Vermiglio. Nord,,46.294789,10.686161,6408
2459,6409,Vellon Bivio,,46.283582,10.659505,6409
2460,6409FS,Forte Strino,,46.280067,10.648351,6409
2461,6410AN,Passo Tonale-Anas,,46.263319,10.611648,6410
2462,6410LO,Passo Tonale-Locatori,,46.261365,10.594408,6410
2463,6410SU,Passo Tonale Sud,,46.260061,10.586558,6410
2464,6410,Passo Tonale,,46.258870,10.583566,6410
2465,6381,Marilleva 900,,46.314155,10.811588,6380
2466,6382SA,Marilleva "Albergo Sole Alto",,46.298520,10.818785,6382
2467,6382TC,Marilleva "Telecabina",,46.300718,10.813806,6382
2468,6382,Marilleva 1400 "Ag.Alpitour",,46.302480,10.810255,6382
2469,6382LO,Marilleva 1400 "Resid. Lores",,46.303609,10.809149,6382
2470,6382SO,Marilleva 1400,,46.304569,10.810518,6382
2475,6402,Celentino. Bivio,,46.332812,10.709890,6402
2476,6403,Comasine. Bivio,,46.335959,10.706462,6402
2477,6404,Celledizzo. Bivio,,46.343941,10.701437,6404
2478,6405,Cogolo,,46.351465,10.693232,6405
2479,6406CA,Peio. Campeggio V.Di Sole,,46.356722,10.679109,6406
2480,6406,Peio-Fonti,,46.355635,10.662971,6406
2481,6407,Peio,,46.363724,10.675411,6407
2511,6120,Mezzolombardo,,46.213452,11.093439,6120
2512,6110,Mezzocorona. Borgata,,46.214949,11.118690,6110
2513,6100FS,Mezzocorona-Staz.Fs,,46.207570,11.128288,6110
2514,6111,Mezzocorona. Pineta,,46.222935,11.133537,6111
2515,6112,Maso Nuovo,,46.229733,11.140826,6112
2516,6113SU,Roverè Della Luna. Sud,,46.246992,11.164684,6113
2517,6113,Rovere' Della Luna,,46.248871,11.169513,6113
2518,6113NO,Roverè Della Luna-Nord,,46.248490,11.177236,6113
2519,6100,Mezzocorona Ftm,,46.206335,11.127411,6110
2520,0953,Grumo,,46.196959,11.127334,6110
2521,6093,Maso Barco,,46.199917,11.142316,6093
2522,6094,Maso Canazzi,,46.195687,11.144582,6094
2523,6092,Villa Piccola,,46.197031,11.148022,6092
2524,6095MO,Molini,,46.193124,11.154740,6095
2526,6095TO,Faedo. Via Case Sparse. 9,,46.191842,11.155677,6095
2527,6095,Faedo,,46.192668,11.161227,6095
2528,1010TM,Lavis Ftm,,46.140136,11.106136,1010
2529,0940,Zambana,,46.151197,11.096586,0940
2530,0942TM,Zambana-Staz. Ftm,,46.151295,11.100864,1010
2531,6120NO,Mezzolombardo. Nord,,46.216896,11.087196,6120
2532,6131,Spormaggiore,,46.218110,11.047991,6131
2533,6131ZI,Spormaggiore Zona Industriale,,46.227458,11.051650,6131
2534,6131SU,Spormaggiore Sud,,46.225060,11.049369,6131
2535,6132,Castel Belfort,,46.204621,11.040805,6132
2536,6133,Cavedago,,46.184023,11.028964,6133
2537,6133PC,Cavedago,,46.183709,11.027371,6133
2538,6133PI,Cavedago Ai Piani,,46.190764,11.041588,6133
2539,6133MC,Cavedago Maso Canton,,46.185518,11.038543,6133
2540,6133MD,Maso Dalsas,,46.184816,11.023576,6133
2541,6133BE,Cavedago-Cimitero,,46.185023,11.021290,6133
2542,6137,Andalo,,46.168419,11.005352,6137
2545,0956GE,Genzianella,,46.151000,10.980263,0956
2546,0956NO,Molveno. Nord,,46.144090,10.966107,0956
2547,0956HE,Molveno. Htl Excelsior,,46.142589,10.962791,0956
2548,0001LS,Trento. L.Go N. Sauro,,46.074839,11.125030,0001
2550,6134,Maso Daldoss,,46.181931,11.020555,6134
2551,6135,Fai Della Paganella,,46.179006,11.070112,6135
2552,6135SU,Fai Paganella-Sud,,46.183826,11.072529,6135
2553,6135PT,Fai Paganella,,46.177583,11.069128,6135
2554,6135CO,Cortalta-Fai Della Paganella,,46.175510,11.065069,6135
2555,6135MV,Fai Paganella-Miravalle,,46.175486,11.058934,6135
2557,6136,Santel. Sp64,,46.175704,11.052302,6136
2558,6137MT,Andalo-Maso Toscana,,46.169857,11.017015,6137
2559,6137NO,Andalo-Nord,,46.168088,11.008338,6137
2560,6137VP,Andalo-Via Paganella,,46.164115,11.004457,6137
2561,6211,Rallo Bivio,,46.350029,11.051759,6210
2562,6212,Rallo,,46.342731,11.046702,6210
2563,6213,Sanzenone,,46.335329,11.044677,6210
2565,6155NO,Tuenno Nord,,46.332628,11.025762,6155
2566,6155,Tuenno,,46.325965,11.022359,6155
2567,6215,Nanno,,46.314835,11.047433,6215
2568,6216,Portolo,,46.303254,11.059849,6216
2569,6220PC,Cles. Piazza Chiesa,,46.364641,11.036410,6220
2570,6210,Tassullo,,46.341148,11.053639,6210
2571,0001ZC,Trento Nord. Zona Commerciale,,46.090057,11.113025,0001
2572,0935TM,Gardolo-Ferrovia,,46.108097,11.104554,0935
2573,0937TM,Spini-Zona Industriale,,46.118667,11.104852,0937
2574,0938TM,Lamar,,46.125961,11.107589,0937
2576,0946TM,Nave S.Felice,,46.166862,11.113219,0946
2578,0953TM,Grumo-S.Michele A/A.,,46.193799,11.127847,6110
2579,6100TM,Mezzocorona Ferrovia,,46.206192,11.127392,6110
2580,6110TM,Mezzocorona Borg.,,46.214119,11.118804,6110
2581,6120TM,Mezzolombardo Ferrovia,,46.213455,11.093290,6120
2582,6123TM,Masi di Vigo,,46.238968,11.062261,6123
2583,6140TM,Crescino,,46.241916,11.058481,6123
2584,6150TM,Denno,,46.262782,11.059768,6150
2586,6170TM,Mollaro,,46.294617,11.068168,6170
2587,6180TM,Segno Ferrovia,,46.304610,11.071492,6180
2588,6190TM,Taio Ferrovia,,46.322050,11.067643,6190
2589,6200TM,Dermulo Ferrovia,,46.337566,11.063160,6200
2590,6210TM,Tassullo Ferrovia,,46.341057,11.053740,6210
2591,6220TM,Cles Ferrovia,,46.364543,11.038890,6220
2592,6220PS,Cles-Polo Scolastico,,46.369918,11.033707,6220
2593,6230TM,Mostizzolo,,46.393921,11.011315,6230
2594,6240TM,Bozzana,,46.388816,10.988809,6240
2595,6250TM,Tozzaga Ferrovia,,46.381234,10.971870,6250
2596,6260TM,Cassana Ferrovia,,46.375769,10.960508,6270
2597,6270TM,Cavizzana Ferrovia,,46.371612,10.952038,6270
2598,6280TM,Caldes Ferrovia,,46.366110,10.943235,6280
2599,6290TM,Terzolas Ferrovia,,46.357975,10.925606,6300
2600,6300TM,Male' Ferrovia,,46.353540,10.916937,6300
2601,6310TM,Croviana Ftm,,46.343758,10.907186,6310
2602,6320TM,Monclassico Ftm,,46.332452,10.889434,6320
2604,6340TM,Dimaro Ferrovia,,46.328910,10.872228,6340
2605,6350TM,Mastellina Ftm,,46.322181,10.847667,6350
2606,6355TM,Daolasa Ferrovia,,46.319514,10.836159,6360
2609,6220OS,Cles. Ospedale,,46.360865,11.031642,6220
2610,6220MA,Cles-Masere-Poli,,46.356840,11.029218,6220
2611,6157SU,Mechel Sud,,46.351335,11.022411,6157
2612,6157SM,Mechel Civ. 19,,46.349423,11.020079,6157
2613,6157,Mechel,,46.348916,11.018215,6157
2614,6370TM,Piano Commezzadura Ftm,,46.317448,10.826348,6370
2615,6381TM,Marilleva 900,,46.315207,10.812207,6380
2616,1300VA,Pozza di Fassa. Vac,,46.432971,11.687428,1300
2617,6230,Mostizzolo. Bivio,,46.393762,11.012181,6230
2618,6230TO,Toflini,,46.399781,11.010729,6230
2619,6705,Scanna,,46.396204,11.025734,6705
2620,6710,Varollo,,46.398140,11.022163,6710
2621,6715,Livo,,46.405418,11.017736,6715
2622,6720,Preghena. Ovest,,46.409016,11.010457,6720
2623,6760,Baselga di Bresimo,,46.415259,10.985097,6760
2624,6765SU,Bresimo. Sud,,46.412205,10.973590,6765
2625,6765,Bresimo,,46.410794,10.968250,6765
2626,6720NO,Preghena. Nord,,46.409637,11.016800,6720
2627,6725MO,Marcena. Molini,,46.444993,11.009917,6730
2628,6725,Marcena,,46.441917,11.017469,6730
2630,6725OR,Marcena Ori,,46.440813,11.021920,6730
2631,6735IN,Corte Inferiore Bivio,,46.439028,11.025884,6730
2632,6730,Mione,,46.437083,11.027963,6730
2633,6725PA,Marcena Du Park,,46.445771,11.013289,6730
2634,6735,Corte Superiore Bivio,,46.448624,11.011234,6750
2635,6740,Scassio,,46.449563,11.009054,6750
2636,6750,Mocenigo,,46.450900,11.008216,6750
2637,6755,Lanza di Rumo,,46.454750,11.012444,6755
2638,6122,Truzzi. Bivio,,46.239471,11.062319,6123
2639,6122ND,Truzzi Nord,,46.243084,11.063904,6123
2643,6123,Masi di Vigo. Bivio,,46.248990,11.068934,6123
2644,6124,Bastianelli,,46.257920,11.082711,6124
2645,6125,Vigo di Ton,,46.265372,11.086163,6125
2646,6125NR,Vigo di Ton-Nord,,46.263933,11.081174,6125
2647,6126,Bivio Raut,,46.261371,11.075086,6125
2648,6126RA,Raut,,46.254575,11.069649,6125
2649,6127SD,Toss-Sud-Via Verdi,,46.275583,11.080010,6127
2650,6127,Toss,,46.276613,11.079288,6127
2651,0942VF,Lavis. Via Filos,,46.145607,11.097282,1010
2652,0940AI,Zambana. Aicheri,,46.154152,11.092788,0940
2653,0940MG,Maso Gesuiti,,46.156480,11.091741,0940
2654,0945,Maso San Valentino,,46.159261,11.098106,0945
2655,0947,Nave San Rocco,,46.166352,11.109798,0947
2656,0948,Masetto,,46.171238,11.105355,0948
2657,0949,Maso Inon,,46.177719,11.105560,0949
2658,0950,Maso Tabarelli,,46.182695,11.105635,0950
2659,0951,Rupe,,46.195889,11.101449,0951
2660,6120ST,Mezzolombardo Stella,,46.209488,11.094150,6120
2661,6140,Crescino,,46.241886,11.058661,6123
2662,6151MA,Denno Magazzino,,46.266671,11.055947,6151
2663,6650,Cagnò,,46.394922,11.040164,6650
2664,6655,Revò,,46.390859,11.059217,6655
2665,6660,Romallo,,46.396342,11.066053,6660
2666,6660ND,Romallo Nord,,46.399681,11.068542,6660
2667,6665SD,Cloz. Sud,,46.416351,11.084542,6665
2668,6665,Cloz,,46.419465,11.087252,6665
2669,6665ND,Cloz-Nord,,46.421864,11.089955,6665
2670,6670,Arsio,,46.426557,11.096344,6670
2671,6675,Brez,,46.430992,11.107217,6675
2672,6686,Castelfondo,,46.454373,11.117509,6686
2673,6580,Fondo. Piazza S.Giovanni,,46.439417,11.135801,6580
2674,6580CA,Fondo. Via Garibaldi,,46.437270,11.137780,6580
2675,6580AU,Fondo Autorimessa,,46.436126,11.140675,6580
2676,6151,Denno,,46.274961,11.048174,6151
2677,6152,Cunevo,,46.286170,11.037874,6152
2678,6153,Flavon,,46.299109,11.031185,6153
2679,6154,Terres,,46.309982,11.022790,6154
2680,6155SU,Tuenno-Sud,,46.321470,11.021822,6155
2681,6156,Mechel. Bivio,,46.352206,11.027084,6220
2683,6199,Santa Giustina,,46.346039,11.060423,6210
2684,6200,Dermulo,,46.337645,11.062912,6200
2685,6501PA,Coredo,,46.348752,11.088964,6501
2686,6503PA,Smarano,,46.341949,11.107749,6503
2687,6504,Sfruz,,46.336819,11.115835,6503
2694,6143,Sporminore,,46.237349,11.031286,6143
2695,6143ND,Sporminore Nord,,46.239613,11.023895,6143
2696,6144,Lover,,46.247526,11.024538,6144
2697,6145BV,Campodenno. Bivio,,46.258801,11.032810,6145
2698,6142,Quetta. Bivio,,46.258112,11.046462,6145
2699,6147,Termon,,46.268090,11.036282,6151
2701,1075CP,Palu' di G. C.Polisportivo,,46.158475,11.142669,1075
2702,6510,Sanzeno,,46.365670,11.074268,6510
2703,6530,Malgolo,,46.378330,11.088782,6530
2704,6530ND,Malgolo-Nord,,46.380902,11.094410,6530
2705,6540,Salter,,46.377513,11.105834,6540
2706,6540ND,Salter-Nord,,46.381140,11.107300,6540
2707,6550,Romeno,,46.394691,11.120595,6550
2708,6560PI,Cavareno-Loc. Piena,,46.402900,11.132182,6550
2709,6560PA,Cavareno,,46.409371,11.137484,6560
2710,6570,Sarnonico,,46.418621,11.140692,6570
2711,6580SD,Fondo-Sud,,46.432347,11.140633,6580
2712,6590,Malosco,,46.434123,11.144990,6590
2714,6600BE,Belvedere di Ronzone,,46.427676,11.154271,6600
2715,6600,Ronzone,,46.424183,11.151452,6600
2716,6600SD,Ronzone-Sud,,46.419660,11.146714,6600
2717,6610BV,Ruffrè-Bivio,,46.417475,11.166250,6610
2718,6610GI,Ruffrè-Giordani,,46.419338,11.175859,6610
2719,6610,Ruffre',,46.416264,11.176867,6610
2720,6610VA,Ruffrè-Maso Valletta,,46.414456,11.185058,6610
2722,6630MI,Mendola,,46.418341,11.204658,6630
2723,6630,Passo Mendola,,46.416010,11.208152,6630
2724,6511,Banco,,46.374470,11.069683,6510
2725,6512,Casez,,46.375793,11.075886,6510
2727,6562,Don,,46.389920,11.136604,6560
2728,6563,Amblar,,46.395277,11.144166,6560
2730,6516,Piano-Sanzeno,,46.369418,11.070054,6510
2731,6700,Cis,,46.399465,11.003156,6700
2732,6700SU,Cis-Sud,,46.397800,11.007476,6700
2734,6513,Dambel,,46.405174,11.092366,6513
2735,6514,Seio,,46.416812,11.126717,6514
2736,6280,Caldes,,46.366173,10.943212,6280
2737,6260,Cassana,,46.375715,10.960519,6270
2738,6250,Tozzaga,,46.382041,10.971011,6250
2739,6240,Bozzana,,46.388715,10.988644,6240
2740,6170,Mollaro,,46.294585,11.074386,6170
2741,6171,Tuenetto. Bivio,,46.297305,11.080504,6171
2742,6172,Dardine,,46.286258,11.082406,6172
2743,6173,Priò,,46.289656,11.093719,6173
2744,6174,Vervo',,46.307291,11.118658,6191
2745,6191,Tres,,46.320118,11.094173,6191
2746,6190,Taio,,46.321649,11.066392,6190
2747,6145,Campodenno,,46.258032,11.034515,6145
2748,0942,Zambana. Statale 12,,46.151043,11.100829,1010
2749,6162,Lago di Tovel,,46.264856,10.955005,6162
2750,6161,Albergo Capriolo,,46.294769,10.974611,6161
2751,6170ST,Mollaro. Staz.Ftm,,46.294247,11.067972,6170
2758,6096,Faedo. Pineta,,46.197722,11.168359,6096
2761,4143SE,Hacleri. Sp 135 Km. 8.8,,46.113462,11.324589,4143
2762,4143PR,Hacleri. Sp 135 Al Km. 9.9,,46.116174,11.333317,4143
2763,3346AA,Ala-Albergo Città di Ala,,45.754163,10.997392,3346
2766,3242,Dosso-Vallarsa,,45.819708,11.092330,3159
2767,3220,Staineri,,45.797308,11.093679,3162
2768,1070VA,Cavalese. Via Degli Artigiani,,46.288966,11.448011,1070
2769,1070VR,Cavalese. P. Francescani,,46.292006,11.458571,1070
2771,6139,Moncovo,,46.263613,11.060227,6150
2772,6159,Segonzone Bivio,,46.250070,11.031814,6144
2775,3520ML,Arco. Viale Rovereto,,45.913004,10.897336,3520
2776,6220PF,Cles. Piazza Fiera,,46.368480,11.034610,6220
2778,6230LA,Mostizzolo,,46.394209,11.013355,6230
2779,6220VT,Cles-Viale Trento,,46.356259,11.038087,6220
2780,6290,Terzolas. Bivio Paese,,46.358262,10.925110,6300
2782,2121,Ponte Oliveti,,46.042757,10.962262,2121
2785,1223BV,Bivio Passo Valles,,46.308568,11.751176,1223
2788,3520CT,Arco. S.Caterina Poli,,45.909504,10.870501,3520
2790,3520CR,Arco. S.Caterina Poli,,45.909916,10.870983,3520
2792,2127HE,Dro. Ss.45 Htl Eden,,45.970063,10.923461,2127
2795,4145,Maso Canela,,46.022088,11.227061,4250
2796,4129,Canale di Pergine V.,,46.043636,11.227036,4200
2798,4135,Vignola,,46.044540,11.277067,4135
2799,2023VP,M.Terlago. Inc.V.Paganella,,46.110766,11.038256,2023
2800,2053VC,V.Cavedine. Via Capitello,,45.981509,10.977913,2054
2801,4070TO,Montesover-Tornante,,46.219138,11.325821,4070
2803,0952,Sornello-Piazzale Ex Dogana,,46.182123,11.122680,0944
2806,2240DR,Ponte Ragoli R,,46.050612,10.785156,2240
2807,4126BA,Battisti,,46.131143,11.361700,4126
2808,2122VA,Pergolese. V. Dell'agricoltura,,46.032987,10.959913,2122
2809,2122VP,Pergolese-Inc Via Dos Dei Pini,,46.030486,10.958817,2122
2810,3850MR,Lavarone. Htl Monte Rust,,45.943992,11.248560,3850
2811,4126TO,Palu' Del F. Loc.Tolar Civ 69,,46.130617,11.357962,4126
2812,1080ME,Valda. Piazza Melari 4,,46.208060,11.256594,1080
2813,1081FO,Grumes. Via Fontanelle,,46.219673,11.293091,1081
2814,1083MI,Capriana. Loc. Miravalle,,46.261788,11.343106,1084
2816,1160BV,Daiano-Ss620 Bivio Per Daiano,,46.299756,11.452592,1160
2817,5122GI,Canal S.Bovo. Loc. Giaroni,,46.161769,11.714304,5117
2819,5180MT,S.Martino di C. Mtl Taufer,,46.252811,11.802532,5180
2820,2620RO,Sardagna-Rotatoria,,46.065665,11.095491,2620
2825,3045NU,Folgaria. P.Le N.Unite,,45.913942,11.170209,3045
2827,3042AA,Mezzomonte. Az. Agricola,,45.919873,11.141606,3042
2828,3048MA,Costa. Via Maffei,,45.920588,11.193238,3048
2830,6135SA,Fai Paganella-A.Stella Alpina,,46.180892,11.071654,6135
2831,0956BP,Molveno. Via Nazionale 73,,46.145717,10.971193,0956
2834,6111FU,Mezzocorona. Furlan Legnami,,46.224367,11.133559,6111
2835,6110PA,Mezzocorona. Via Borgo Nuovo,,46.217155,11.127362,6110
2837,6211MH,Rallo. Maierhofer,,46.351432,11.053893,6210
2838,6501DQ,Coredo-Distributore Repsol,,46.347121,11.079374,6501
2840,1057,Fontanefredde,,46.330365,11.374267,1058
2841,1058,S.Lugano,,46.311566,11.394014,1058
2842,6143BV,Sporminore Bivio,,46.240719,11.056905,6123
2847,0954VB,S.Michele A/Adige,,46.192960,11.132786,6110
2871,4127,Assizzi,,46.050573,11.257421,4127
2894,4129CN,Canale di Pergine. Chiesa,,46.042119,11.229598,4200
2899,0001TN,Trener "3 Torri Pat",,46.095106,11.116918,0001
2941,0954IA,S.Michele. Ist. Agrario,,46.194089,11.135440,6110
3002,1078SC,Cembra. Polo Scolastico,,46.172898,11.223453,1078
3019,1138,Pian Del Gac,,46.130681,11.204212,1111
3037,1220IT,Predazzo. I.T.C.,,46.310912,11.599014,1220
3039,1221CS,Castelir di Bellamonte,,46.312769,11.687631,1221
3074,2024,Laghi di Lamar,,46.127873,11.061501,2023
3082,3155SP,Vanza. Sp50,,45.856330,11.079676,3155
3109,0001BL,Trento. Bellevue,,46.053215,11.136439,0001
3122,1145,Piazzo di Segonzano,,46.182087,11.252862,1115
3138,2147MA,Bezzecca. Via Lamarmora,,45.897421,10.720161,2147
3154,2176,Pranzo,,45.922617,10.818156,2189
3155,2176BN,Pranzo. Via Dei Castagni,,45.924837,10.817235,2189
3159,2178,Campi,,45.911113,10.811475,2189
3160,2178BV,Campi. Bivio Sp37,,45.924331,10.814497,2189
3161,2179,Deva,,45.908536,10.833593,2179
3213,2290SM,Tione-Via Circonvallazione 65,,46.036563,10.728326,2290
3382,3175,Acheni,,45.836615,11.076855,3175
3392,3201DB,Noriglio. Distributore,,45.887520,11.059259,3201
3555,1146,Parlo,,46.180635,11.251649,1115
3619,4127BV,Assizzi Bivio-Dir. Levico,,46.051277,11.250469,4127
3623,4131,S.Vito di Pergine,,46.035145,11.220259,4130
3655,4370RM,Marter. Via Nazionale 24,,46.037114,11.398463,4370
3659,4427,Maso Rozza,,46.063891,11.402752,4425
3666,2199MA,Madice-Loc. Maton Civ. 1,,46.020909,10.826259,2199
3682,4423,Maso Scali,,46.059191,11.415606,4420
3683,4424,Maso Sasso,,46.063372,11.426856,4430
3684,4425,Maso Lagon,,46.061322,11.415311,4425
3685,4426,Maso Montibelleri,,46.064486,11.408686,4425
3686,4428,Maso Fraineri,,46.062871,11.397729,4425
3687,4429,Maso Uelleri,,46.059857,11.398556,4429
3688,4431,Maso Vestri,,46.057911,11.403759,4431
3689,4433,Maso Zanorgi,,46.055118,11.398764,4433
3690,4434,Molini di Roncegno,,46.054168,11.397301,4433
3691,4435,Maso Cadenzi,,46.051762,11.401256,4433
3696,4450ZI,Castelnuovo Zona Industriale,,46.052406,11.502930,4450
3779,6300EX,Malè-Ex Stazione Ftm,,46.352921,10.914904,6300
3786,5160CS,Siror. Centro Sportivo,,46.190730,11.828285,5140
3813,6128,Castelletto di Ton,,46.247143,11.062581,6123
3816,6146,Dercolo. Bivio,,46.250410,11.044553,6145
3817,6151SM,Denno. Scuole Medie,,46.270785,11.048634,6151
3819,6220CS,Cles Centro Sportivo,,46.344184,11.026761,6220
3824,6326CO,Rabbi Coler,,46.417010,10.776942,6327
3869,3346SC,Ala Scuole,,45.756437,11.001202,3346
3872,3100MA,Rovereto. Via S.Maria 66,,45.884662,11.042890,3100
3873,3100ZU,Rovereto. Via Zugna 48,,45.884392,11.049380,3100
3895,6270,Cavizzana. Bivio,,46.371565,10.952166,6270
3896,4432,Maso Zonti,,46.055368,11.401852,4431
3901,6302SD,Bolentina Sud,,46.344970,10.889463,6302
3910,6324MO,Le More,,46.404624,10.836066,6324
3911,6326FO,Rabbi Bagni-Vecchia Fonte,,46.407743,10.810040,6327
3917,6170SS,Mollaro. Bivio,,46.294139,11.067202,6170
3918,6180,Segno Ss,,46.304718,11.071509,6180
